[
  {
    "number": 1,
    "country": "Africa de Sud",
    "city": "Pretoria",
    "address": "877 Justice Mahomed Street, Brooklyn, 0181, Pretoria",
    "location": "Ambasadă",
    "latitude": -25.767077,
    "longitude": 28.234577,
    "type": "Ambele tururi"
  },
  {
    "number": 2,
    "country": "Africa de Sud",
    "city": "Cape Town",
    "address": "24 Highwick Drive, 7708, Kenilworth, Cape Town",
    "location": "Consulat General",
    "latitude": -33.99173,
    "longitude": 18.46149,
    "type": "Ambele tururi"
  },
  {
    "number": 3,
    "country": "Republica Albania",
    "city": "Tirana",
    "address": "Rruga E Elbasanit, nr.303, Sauk, cod poștal 1044",
    "location": "Ambasadă",
    "latitude": 41.306405,
    "longitude": 19.842026,
    "type": "Ambele tururi"
  },
  {
    "number": 4,
    "country": "Algeria",
    "city": "Alger",
    "address": "24, rue Abri Arezki, Hydra, Alger",
    "location": "Ambasadă",
    "latitude": 36.745669,
    "longitude": 3.038254,
    "type": "Ambele tururi"
  },
  {
    "number": 5,
    "country": "Angola",
    "city": "Luanda",
    "address": "Rua Ramalho Ortigão, nr. 30, Bairro Alvalade, Luanda",
    "location": "Ambasadă",
    "latitude": -8.829127,
    "longitude": 13.235535,
    "type": "Ambele tururi"
  },
  {
    "number": 6,
    "country": "Regatul Arabiei Saudite",
    "city": "Riyadh",
    "address": "2747 Amin Ar Rihany St., King Fahd District, Unit no. 1, Building no. 2747, Riyadh , Zip Code 12273 -Additional no. 7442",
    "location": "Ambasadă",
    "latitude": 24.742269,
    "longitude": 46.665786,
    "type": "Ambele tururi"
  },
  {
    "number": 7,
    "country": "Argentina",
    "city": "Buenos Aires",
    "address": "Calle Arroyo, nr. 962-970, cod poștal 1007AAD, Orașul Autonom Buenos Aires",
    "location": "Ambasadă",
    "latitude": -34.591709,
    "longitude": -58.380941,
    "type": "Ambele tururi"
  },
  {
    "number": 8,
    "country": "Armenia",
    "city": "Erevan",
    "address": "Strada Barbusse, nr. 15, cartier Arabkir, cod poștal  0028, Erevan",
    "location": "Ambasadă",
    "latitude": 40.197273,
    "longitude": 44.486607,
    "type": "Ambele tururi"
  },
  {
    "number": 9,
    "country": "Australia",
    "city": "Canberra",
    "address": "4 Dalman Crescent, O'Malley, ACT, 2606",
    "location": "Ambasadă",
    "latitude": -35.350257,
    "longitude": 149.108693,
    "type": "Ambele tururi"
  },
  {
    "number": 10,
    "country": "Australia",
    "city": "Melbourne",
    "address": "Camera 10.01A, Etaj 10, 5 Queens Road, Melbourne VIC 3004",
    "location": "Consulat",
    "latitude": -37.836996,
    "longitude": 144.974029,
    "type": "Ambele tururi"
  },
  {
    "number": 11,
    "country": "Australia",
    "city": "Adelaide",
    "address": "32/34 Rosa St, Goodwood SA 5034",
    "location": "Altele",
    "latitude": -34.95098,
    "longitude": 138.59059,
    "type": "Ambele tururi"
  },
  {
    "number": 12,
    "country": "Australia",
    "city": "Perth",
    "address": "8 Balga Ave, Balga WA 6061",
    "location": "Altele",
    "latitude": -31.856224,
    "longitude": 115.839048,
    "type": "Ambele tururi"
  },
  {
    "number": 14,
    "country": "Australia",
    "city": "Sydney",
    "address": "Suite 4, G-F/83 York Street, CBD, Sydney, NSW, 2000",
    "location": "Consulat General",
    "latitude": -33.869475,
    "longitude": 151.205844,
    "type": "Ambele tururi"
  },
  {
    "number": 15,
    "country": "Australia",
    "city": "Surfers Paradise",
    "address": "1-2/66 Appel Street, Surfers Paradise, Gold Coast, QLD, 4217",
    "location": "Altele",
    "latitude": -28.004353,
    "longitude": 153.428148,
    "type": "Ambele tururi"
  },
  {
    "number": 13,
    "country": "Noua Zeelandă",
    "city": "Auckland",
    "address": "Etaj 16, 56 Wakefield Street, Auckland CBD, Auckland 1010",
    "location": "Altele",
    "latitude": -36.854213,
    "longitude": 174.765494,
    "type": "Ambele tururi"
  },
  {
    "number": 16,
    "country": "Austria",
    "city": "Viena 1",
    "address": "Prinz Eugen Strasse 60, 1040, Viena",
    "location": "Ambasadă",
    "latitude": 48.190814,
    "longitude": 16.379637,
    "type": "Ambele tururi"
  },
  {
    "number": 17,
    "country": "Austria",
    "city": "Viena 2",
    "address": "Prinz Eugen Strasse 60, 1040, Viena",
    "location": "Ambasadă",
    "latitude": 48.190814,
    "longitude": 16.379637,
    "type": "Ambele tururi"
  },
  {
    "number": 18,
    "country": "Austria",
    "city": "Viena 3",
    "address": "Theresianumgasse 25, 1040, Viena",
    "location": "Consulat",
    "latitude": 48.191552,
    "longitude": 16.373778,
    "type": "Ambele tururi"
  },
  {
    "number": 19,
    "country": "Austria",
    "city": "Viena 4",
    "address": "Argentinierstrasse 39, 1040, Viena",
    "location": "ICR",
    "latitude": 48.191844,
    "longitude": 16.374973,
    "type": "Ambele tururi"
  },
  {
    "number": 20,
    "country": "Austria",
    "city": "Viena 5",
    "address": "Argentinierstrasse 39, 1040, Viena",
    "location": "ICR",
    "latitude": 48.191844,
    "longitude": 16.374973,
    "type": "Ambele tururi"
  },
  {
    "number": 21,
    "country": "Austria",
    "city": "Viena 6",
    "address": "Gasometer Spielraum - Guglgasse 8/Gasometer B, 1100, Viena",
    "location": "Altele",
    "latitude": 48.185526,
    "longitude": 16.41947,
    "type": "Ambele tururi"
  },
  {
    "number": 22,
    "country": "Austria",
    "city": "Graz 1",
    "address": "IntercityHotel - Finkengasse 2, 8020, Graz",
    "location": "Altele",
    "latitude": 47.07086,
    "longitude": 15.41806,
    "type": "Ambele tururi"
  },
  {
    "number": 23,
    "country": "Austria",
    "city": "Graz 2",
    "address": "IntercityHotel - Finkengasse 2, 8020, Graz",
    "location": "Altele",
    "latitude": 47.07068,
    "longitude": 15.41813,
    "type": "Ambele tururi"
  },
  {
    "number": 24,
    "country": "Austria",
    "city": "Eisenstadt",
    "address": "Hotel Galantha - Esterhazyplatz 3, 7000, Eisenstadt",
    "location": "Altele",
    "latitude": 47.845227,
    "longitude": 16.519052,
    "type": "Ambele tururi"
  },
  {
    "number": 25,
    "country": "Austria",
    "city": "Sankt Pölten",
    "address": "Haus 17A, E01, Landhausplatz 1, 3100, Sankt Pölten",
    "location": "Altele",
    "latitude": 48.202103,
    "longitude": 15.633289,
    "type": "Ambele tururi"
  },
  {
    "number": 26,
    "country": "Austria",
    "city": "Salzburg 1",
    "address": "Rudolfskai 50, 5020 Salzburg",
    "location": "Consulat General",
    "latitude": 47.797934,
    "longitude": 13.052148,
    "type": "Ambele tururi"
  },
  {
    "number": 27,
    "country": "Austria",
    "city": "Salzburg 2",
    "address": "Rudolfskai 50, 5020 Salzburg",
    "location": "Consulat General",
    "latitude": 47.797934,
    "longitude": 13.052148,
    "type": "Ambele tururi"
  },
  {
    "number": 28,
    "country": "Austria",
    "city": "Bregenz",
    "address": "Grand Hotel, Platz der Wiener Symphoniker 2, 6900 Bregenz",
    "location": "Altele",
    "latitude": 47.503451,
    "longitude": 9.738453,
    "type": "Ambele tururi"
  },
  {
    "number": 29,
    "country": "Austria",
    "city": "Innsbruck",
    "address": "Hotel Congress, Rennweg 12a, 6020 Innsbruck",
    "location": "Altele",
    "latitude": 47.274669,
    "longitude": 11.397497,
    "type": "Ambele tururi"
  },
  {
    "number": 30,
    "country": "Austria",
    "city": "Klagenfurt",
    "address": "SW Umwelttechnik, Stoiser & Wolschner AG, Bahnstraße 89 9020 Klagenfurt",
    "location": "Altele",
    "latitude": 46.629862,
    "longitude": 14.332746,
    "type": "Ambele tururi"
  },
  {
    "number": 31,
    "country": "Austria",
    "city": "Linz 1",
    "address": "Bischöfliches Priesterseminar der Diözese Linz, Harrachstraße 7, 4020 Linz",
    "location": "Altele",
    "latitude": 48.302894,
    "longitude": 14.292568,
    "type": "Ambele tururi"
  },
  {
    "number": 32,
    "country": "Austria",
    "city": "Linz 2",
    "address": "Bischöfliches Priesterseminar der Diözese Linz, Harrachstraße 7, 4020 Linz",
    "location": "Altele",
    "latitude": 48.302894,
    "longitude": 14.292568,
    "type": "Ambele tururi"
  },
  {
    "number": 33,
    "country": "Azerbaidjan",
    "city": "Baku",
    "address": "B-dul Akad. Hasan Aliyev, nr. 125 A (Narimanov), cod AZ1110 Baku",
    "location": "Ambasadă",
    "latitude": 40.403884,
    "longitude": 49.855016,
    "type": "Ambele tururi"
  },
  {
    "number": 34,
    "country": "Republica Belarus",
    "city": "Minsk",
    "address": "Kaliningradski pereulok nr. 12, cod 220012, Minsk",
    "location": "Ambasadă",
    "latitude": 53.927176,
    "longitude": 27.598967,
    "type": "Ambele tururi"
  },
  {
    "number": 35,
    "country": "Belgia",
    "city": "Bruxelles 1",
    "address": "Rue Gabrielle 105, 1180 Uccle",
    "location": "Ambasadă",
    "latitude": 50.812573,
    "longitude": 4.359936,
    "type": "Ambele tururi"
  },
  {
    "number": 36,
    "country": "Belgia",
    "city": "Bruxelles 2",
    "address": "Boulevard du Regent 47-48, 1000 Bruxelles",
    "location": "Secție Consulară",
    "latitude": 50.847386,
    "longitude": 4.368807,
    "type": "Ambele tururi"
  },
  {
    "number": 37,
    "country": "Belgia",
    "city": "Bruxelles 3",
    "address": "Boulevard du Regent 47-48, 1000 Bruxelles",
    "location": "Secție Consulară",
    "latitude": 50.847386,
    "longitude": 4.368807,
    "type": "Ambele tururi"
  },
  {
    "number": 38,
    "country": "Belgia",
    "city": "Bruxelles 4",
    "address": "Rue Gabrielle 107, 1180 Uccle",
    "location": "ICR",
    "latitude": 50.812273,
    "longitude": 4.359969,
    "type": "Ambele tururi"
  },
  {
    "number": 39,
    "country": "Belgia",
    "city": "Bruxelles 5",
    "address": "Avenue de Cortenbergh nr. 107, 1000 Bruxelles",
    "location": "Reprezentanță Permanentă",
    "latitude": 50.845219,
    "longitude": 4.390824,
    "type": "Ambele tururi"
  },
  {
    "number": 40,
    "country": "Belgia",
    "city": "Bruxelles 6",
    "address": "Tour & Taxis - Rue Picard 7, Gare Maritime, 1000 Bruxelles",
    "location": "Altele",
    "latitude": 50.864446,
    "longitude": 4.345372,
    "type": "Ambele tururi"
  },
  {
    "number": 41,
    "country": "Belgia",
    "city": "Bruxelles 7",
    "address": "Tour & Taxis - Rue Picard 7, Gare Maritime, 1000 Bruxelles",
    "location": "Altele",
    "latitude": 50.865423,
    "longitude": 4.346343,
    "type": "Ambele tururi"
  },
  {
    "number": 42,
    "country": "Belgia",
    "city": "Bruxelles 8",
    "address": "Tour & Taxis - Rue Picard 7, Gare Maritime, 1000 Bruxelles",
    "location": "Altele",
    "latitude": 50.865122,
    "longitude": 4.345417,
    "type": "Ambele tururi"
  },
  {
    "number": 43,
    "country": "Belgia",
    "city": "Bruxelles 9",
    "address": "Autoworld Brussels, Parc du Cinquantenaire 11, Jubelpark, 1000 Bruxelles",
    "location": "Altele",
    "latitude": 50.839245,
    "longitude": 4.393418,
    "type": "Ambele tururi"
  },
  {
    "number": 44,
    "country": "Belgia",
    "city": "Bruxelles 10",
    "address": "Autoworld Brussels, Parc du Cinquantenaire 11, Jubelpark, 1000 Bruxelles",
    "location": "Altele",
    "latitude": 50.839245,
    "longitude": 4.393418,
    "type": "Ambele tururi"
  },
  {
    "number": 45,
    "country": "Belgia",
    "city": "Bruxelles 11",
    "address": "Autoworld Brussels, Parc du Cinquantenaire 11, Jubelpark, 1000 Bruxelles",
    "location": "Altele",
    "latitude": 50.839245,
    "longitude": 4.393418,
    "type": "Ambele tururi"
  },
  {
    "number": 46,
    "country": "Belgia",
    "city": "Bruxelles 12",
    "address": "Autoworld Brussels, Parc du Cinquantenaire 11, Jubelpark, 1000 Bruxelles",
    "location": "Altele",
    "latitude": 50.839245,
    "longitude": 4.393418,
    "type": "Ambele tururi"
  },
  {
    "number": 47,
    "country": "Belgia",
    "city": "Antwerpen 1",
    "address": "Blue Point Antwerpen, Filip Williotstraat 9, 2600 Antwerpen",
    "location": "Altele",
    "latitude": 50.851123,
    "longitude": 4.40189,
    "type": "Ambele tururi"
  },
  {
    "number": 48,
    "country": "Belgia",
    "city": "Antwerpen 2",
    "address": "Blue Point Antwerpen, Filip Williotstraat 9, 2600 Antwerpen",
    "location": "Altele",
    "latitude": 50.851123,
    "longitude": 4.40189,
    "type": "Ambele tururi"
  },
  {
    "number": 49,
    "country": "Belgia",
    "city": "Arlon",
    "address": "Rue du Musee 10, 6700 Arlon",
    "location": "Altele",
    "latitude": 49.685183,
    "longitude": 5.811648,
    "type": "Ambele tururi"
  },
  {
    "number": 50,
    "country": "Belgia",
    "city": "Bruges 1",
    "address": "Library Zorge, Moerkerkse Steenweg 190, Bruges 8310",
    "location": "Altele",
    "latitude": 51.214383,
    "longitude": 3.249317,
    "type": "Ambele tururi"
  },
  {
    "number": 51,
    "country": "Belgia",
    "city": "Bruges 2",
    "address": "Library Zorge, Moerkerkse Steenweg 190, Bruges 8310",
    "location": "Altele",
    "latitude": 51.214496,
    "longitude": 3.249254,
    "type": "Ambele tururi"
  },
  {
    "number": 52,
    "country": "Belgia",
    "city": "Charleroi",
    "address": "Centre Espace Meeting Charleroi (CEME), Rue des Français 147, 6020 Charleroi",
    "location": "Altele",
    "latitude": 50.422828,
    "longitude": 4.432889,
    "type": "Ambele tururi"
  },
  {
    "number": 53,
    "country": "Belgia",
    "city": "Geel",
    "address": "Stelen 77, 2440 Geel",
    "location": "Altele",
    "latitude": 51.126015,
    "longitude": 4.970875,
    "type": "Ambele tururi"
  },
  {
    "number": 54,
    "country": "Belgia",
    "city": "Ghent",
    "address": "Kinepolis Gent, Ter Platen 12, 9000 Ghent ",
    "location": "Altele",
    "latitude": 51.040547,
    "longitude": 3.729978,
    "type": "Ambele tururi"
  },
  {
    "number": 55,
    "country": "Belgia",
    "city": "Hasselt",
    "address": "Het Volkstehuis, Kempische Kaai 11, 3500 Hasselt",
    "location": "Altele",
    "latitude": 50.935144,
    "longitude": 5.338362,
    "type": "Ambele tururi"
  },
  {
    "number": 56,
    "country": "Belgia",
    "city": "Liege 1",
    "address": "Palais des Congrès de Liège, Esplanade de l'Europe 2/B, 4020 Liege",
    "location": "Altele",
    "latitude": 50.630855,
    "longitude": 5.5742,
    "type": "Ambele tururi"
  },
  {
    "number": 57,
    "country": "Belgia",
    "city": "Liege 2",
    "address": "Palais des Congrès de Liège, Esplanade de l'Europe 2/B, 4020 Liege",
    "location": "Altele",
    "latitude": 50.630855,
    "longitude": 5.5742,
    "type": "Ambele tururi"
  },
  {
    "number": 58,
    "country": "Belgia",
    "city": "Mons",
    "address": "Lotto Mons Expo, Avenue Thomas Edison 2, 7000 Mons",
    "location": "Altele",
    "latitude": 50.458164,
    "longitude": 3.937489,
    "type": "Ambele tururi"
  },
  {
    "number": 59,
    "country": "Belgia",
    "city": "Namur",
    "address": "Auditorium Berthe POULEUR, Avenue Jean Materne 162, 5100 Namur",
    "location": "Altele",
    "latitude": 50.45581,
    "longitude": 4.872603,
    "type": "Ambele tururi"
  },
  {
    "number": 60,
    "country": "Belgia",
    "city": "Roeselare",
    "address": "Beverhuys VZV Isegemseaardeweg 30, 8800 Beveren Roeselare",
    "location": "Altele",
    "latitude": 50.966519,
    "longitude": 3.145034,
    "type": "Ambele tururi"
  },
  {
    "number": 61,
    "country": "Belgia",
    "city": "Roeselare",
    "address": "Beverhuys VZV Isegemseaardeweg 30, 8800 Beveren Roeselare",
    "location": "Altele",
    "latitude": 50.96664,
    "longitude": 3.145185,
    "type": "Ambele tururi"
  },
  {
    "number": 62,
    "country": "Belgia",
    "city": "Sint-Niklaas",
    "address": "Paterskerk, Truweelstraat 210, 9100 Sint-Niklaas",
    "location": "Altele",
    "latitude": 51.172081,
    "longitude": 4.150264,
    "type": "Ambele tururi"
  },
  {
    "number": 63,
    "country": "Belgia",
    "city": "Turnhout",
    "address": "Campus Blairon 200, 2300 Turnhout",
    "location": "Altele",
    "latitude": 51.316012,
    "longitude": 4.929876,
    "type": "Ambele tururi"
  },
  {
    "number": 64,
    "country": "Bosnia și Herțegovina",
    "city": "Sarajevo",
    "address": "Čobanija 28, 71000, Sarajevo",
    "location": "Ambasadă",
    "latitude": 43.853627,
    "longitude": 18.42138,
    "type": "Ambele tururi"
  },
  {
    "number": 65,
    "country": "Brazilia",
    "city": "Brasilia",
    "address": "Sen, Avenida Das nacoes, Lote 6 Quadra 801, Asa Norte, 70800917",
    "location": "Ambasadă",
    "latitude": -15.787192,
    "longitude": -47.865999,
    "type": "Ambele tururi"
  },
  {
    "number": 66,
    "country": "Brazilia",
    "city": "Ipora do Oeste",
    "address": "La Rua Sao Paulo 23, Bairro Centro 89899000",
    "location": "Altele",
    "latitude": -26.985546,
    "longitude": -53.532967,
    "type": "Ambele tururi"
  },
  {
    "number": 67,
    "country": "Brazilia",
    "city": "Rio de Janeiro",
    "address": "Rua Cosme Velho, nr. 526, Rio de Janeiro, 22241-090",
    "location": "Consulat General",
    "latitude": -22.940101,
    "longitude": -43.198707,
    "type": "Ambele tururi"
  },
  {
    "number": 68,
    "country": "Brazilia",
    "city": "São Paulo",
    "address": "Rua São Carlos do Pinhal, nr. 200, São Paulo, 01333-000",
    "location": "Altele",
    "latitude": -23.565017,
    "longitude": -46.649529,
    "type": "Ambele tururi"
  },
  {
    "number": 69,
    "country": "Bulgaria",
    "city": "Sofia",
    "address": "Blvd. Mihai Eminescu nr. 4, Sofia, 1111",
    "location": "Ambasadă",
    "latitude": 42.685141,
    "longitude": 23.351881,
    "type": "Ambele tururi"
  },
  {
    "number": 70,
    "country": "Canada",
    "city": "Ottawa",
    "address": "655 Rideau Street, Ottawa, ON, cod poștal K1N 6A3",
    "location": "Ambasadă",
    "latitude": 45.433929,
    "longitude": -75.673861,
    "type": "Ambele tururi"
  },
  {
    "number": 71,
    "country": "Canada",
    "city": "Calgary",
    "address": "17 Millrise Dr. SW, Calgary, AB, cod poștal T2Y 0K7",
    "location": "Altele",
    "latitude": 50.916473,
    "longitude": -114.072914,
    "type": "Ambele tururi"
  },
  {
    "number": 73,
    "country": "Canada",
    "city": "Quebec",
    "address": "90 boul. des Etudiants, Quebec, QC, cod poștal G2A 1N5",
    "location": "Altele",
    "latitude": 46.855807,
    "longitude": -71.361462,
    "type": "Ambele tururi"
  },
  {
    "number": 72,
    "country": "Canada",
    "city": "Dieppe",
    "address": "505 Melanson Rd., Dieppe, NB, cod poștal E1A 0K2",
    "location": "Altele",
    "latitude": 46.067902,
    "longitude": -64.712812,
    "type": "Ambele tururi"
  },
  {
    "number": 74,
    "country": "Canada",
    "city": "Toronto",
    "address": "789 Don Mills Rd., North York, Ontario, cod poștal M3C 1T5",
    "location": "Consulat General",
    "latitude": 43.718607,
    "longitude": -79.337594,
    "type": "Ambele tururi"
  },
  {
    "number": 75,
    "country": "Canada",
    "city": "Hamilton",
    "address": "20 Murray St. W, Hamilton, Ontario, cod poștal L8L 1B2",
    "location": "Altele",
    "latitude": 43.2655,
    "longitude": -79.866201,
    "type": "Ambele tururi"
  },
  {
    "number": 76,
    "country": "Canada",
    "city": "Kitchener",
    "address": "2188 Shirley Dr., Kitchener, Ontario, cod poștal N2B 0A6",
    "location": "Altele",
    "latitude": 43.476635,
    "longitude": -80.436274,
    "type": "Ambele tururi"
  },
  {
    "number": 77,
    "country": "Canada",
    "city": "Windsor",
    "address": "1960 Tecumseh Rd. E., Windsor, Ontario, cod poștal N8W 1E1",
    "location": "Altele",
    "latitude": 42.301784,
    "longitude": -82.998732,
    "type": "Ambele tururi"
  },
  {
    "number": 78,
    "country": "Canada",
    "city": "Winnipeg",
    "address": "103 Furby St., Winnipeg, Manitoba, cod poștal R3C 2A4",
    "location": "Altele",
    "latitude": 49.881991,
    "longitude": -97.157917,
    "type": "Ambele tururi"
  },
  {
    "number": 79,
    "country": "Canada",
    "city": "Montreal 1",
    "address": "1010, Rue Sherbrooke, O, #610, Montreal, Quebec, H3A 2R7, et.6",
    "location": "Consulat General",
    "latitude": 45.502229,
    "longitude": -73.575661,
    "type": "Ambele tururi"
  },
  {
    "number": 80,
    "country": "Canada",
    "city": "Montreal 2",
    "address": "1010, Rue Sherbrooke, O, # 1516, Montreal, Quebec, H3A 2R7-sala de conferințe, et.15",
    "location": "Altele ",
    "latitude": 45.5023,
    "longitude": -73.575542,
    "type": "Ambele tururi"
  },
  {
    "number": 81,
    "country": "Canada",
    "city": "Vancouver",
    "address": "1165 – 555 Burrard Street, Vancouver, BC V7X 1M8",
    "location": "Consulat General",
    "latitude": 49.286372,
    "longitude": -123.119008,
    "type": "Ambele tururi"
  },
  {
    "number": 82,
    "country": "Canada",
    "city": "Edmonton",
    "address": "9005 - 132 Avenue NW, Edmonton AB, T5E 0Y1",
    "location": "Altele ",
    "latitude": 53.591856,
    "longitude": -113.480232,
    "type": "Ambele tururi"
  },
  {
    "number": 83,
    "country": "Republica Cehă",
    "city": "Praga 1",
    "address": "Strada Nerudova 5, Malá Strana, Praga 1, 11800",
    "location": "Ambasadă",
    "latitude": 50.088505,
    "longitude": 14.400935,
    "type": "Ambele tururi"
  },
  {
    "number": 84,
    "country": "Republica Cehă",
    "city": "Praga 2",
    "address": "Strada Nerudova 5, Malá Strana, Praga 1, 11800",
    "location": "Ambasadă",
    "latitude": 50.088505,
    "longitude": 14.400935,
    "type": "Ambele tururi"
  },
  {
    "number": 85,
    "country": "Republica Cehă",
    "city": "Praga 3",
    "address": "Strada Tržiště 20a, Malá Strana, Praga 1, 11800",
    "location": "Ambasadă",
    "latitude": 50.088505,
    "longitude": 14.400935,
    "type": "Ambele tururi"
  },
  {
    "number": 86,
    "country": "Republica Chile",
    "city": "Santiago de Chile",
    "address": "Benjamin 2955, Las Condes, Regiunea Metropolitana, cod poștal 7550032",
    "location": "Ambasadă",
    "latitude": -33.412703,
    "longitude": -70.600663,
    "type": "Ambele tururi"
  },
  {
    "number": 87,
    "country": "Republica Populară Chineză",
    "city": "Beijing",
    "address": "Str. Ritan Lu Dong Yi Jie, Districtul Chaoyang, Beijing, cod poștal 100600",
    "location": "Ambasadă",
    "latitude": 39.915894,
    "longitude": 116.447103,
    "type": "Ambele tururi"
  },
  {
    "number": 88,
    "country": "Republica Populară Chineză",
    "city": "Hong Kong",
    "address": "03A Unit, 21 Floor, 148 Electric Road, North Point, Hong Kong",
    "location": "Consulat General",
    "latitude": 22.286443,
    "longitude": 114.19175,
    "type": "Ambele tururi"
  },
  {
    "number": 89,
    "country": "Republica Populară Chineză",
    "city": "Shanghai",
    "address": "502 Room, Honi International Plaza, 199 Chengdu North Road, Jing An District, Shanghai, 200041",
    "location": "Consulat General",
    "latitude": 31.227415,
    "longitude": 121.466796,
    "type": "Ambele tururi"
  },
  {
    "number": 90,
    "country": "Republica Cipru",
    "city": "Nicosia 1",
    "address": "27 Pireos str., 2023 Strovolos",
    "location": "Ambasadă",
    "latitude": 35.147451,
    "longitude": 33.35263,
    "type": "Ambele tururi"
  },
  {
    "number": 91,
    "country": "Republica Cipru",
    "city": "Nicosia 2",
    "address": "128 - 130 Limassol Avenue, 2015 Strovolos",
    "location": "Secție Consulară",
    "latitude": 35.143271,
    "longitude": 33.373817,
    "type": "Ambele tururi"
  },
  {
    "number": 92,
    "country": "Republica Cipru",
    "city": "Larnaca",
    "address": "Med High Private English School, 10 Kilkis str., 6531 Larnaca",
    "location": "Altele",
    "latitude": 34.926752,
    "longitude": 33.629517,
    "type": "Ambele tururi"
  },
  {
    "number": 93,
    "country": "Republica Cipru",
    "city": "Limassol",
    "address": "Lophitis Business Center, 28 October Avenue 249-I, Ground floor, 3035 Limassol",
    "location": "Altele",
    "latitude": 34.678911,
    "longitude": 33.051345,
    "type": "Ambele tururi"
  },
  {
    "number": 94,
    "country": "Republica Cipru",
    "city": "Paphos",
    "address": "SEK, Eleftheriou Venizelou str., 8010 Paphos",
    "location": "Altele",
    "latitude": 34.776523,
    "longitude": 32.422428,
    "type": "Ambele tururi"
  },
  {
    "number": 95,
    "country": "Republica Cipru",
    "city": "Poli Chrysochous",
    "address": "Biserica Apostolos Andreas, 2CPH+C94, 8820 Poli Crysochous",
    "location": "Altele",
    "latitude": 35.033795,
    "longitude": 32.427343,
    "type": "Ambele tururi"
  },
  {
    "number": 96,
    "country": "Republica Cipru",
    "city": "Deryneia",
    "address": "Cultural Center,35 Evagorou  str., 5385 Deryneia",
    "location": "Altele",
    "latitude": 35.067651,
    "longitude": 33.95895,
    "type": "Ambele tururi"
  },
  {
    "number": 97,
    "country": "Republica Cipru",
    "city": "Agros",
    "address": "Scoala Gimnazială Apeitou, 44 Kyriacou Apeitou str., 4860 Agros",
    "location": "Altele",
    "latitude": 34.916331,
    "longitude": 33.014438,
    "type": "Ambele tururi"
  },
  {
    "number": 98,
    "country": "R.Columbia",
    "city": "Bogota",
    "address": " Carrera 7 No. 92A-58, Chicó, Bogotá",
    "location": "Ambasadă",
    "latitude": 4.672319,
    "longitude": -74.043095,
    "type": "Ambele tururi"
  },
  {
    "number": 99,
    "country": "Republica Coreea",
    "city": "Seoul",
    "address": "50 Jangmun-ro, Yongsan-gu, Seoul, 04393",
    "location": "Ambasadă",
    "latitude": 37.527038,
    "longitude": 126.995353,
    "type": "Ambele tururi"
  },
  {
    "number": 100,
    "country": "Republica Croația",
    "city": "Zagreb",
    "address": "Mlinarska cesta 43, 10.000",
    "location": "Ambasadă",
    "latitude": 45.827795,
    "longitude": 15.977502,
    "type": "Ambele tururi"
  },
  {
    "number": 101,
    "country": "Cuba",
    "city": "Havana",
    "address": "Ave. 5ta A, no. 4407, e/44 y 46, Miramar, mun. Playa, prov. Havana",
    "location": "Ambasadă",
    "latitude": 23.113803,
    "longitude": -82.430796,
    "type": "Ambele tururi"
  },
  {
    "number": 102,
    "country": "Danemarca",
    "city": "Copenhaga 1 (Frederiksberg)",
    "address": "Institut français du Danemark, Rolighedsvej 37, 1958 Frederiksberg C, Copenhagen",
    "location": "Altele",
    "latitude": 55.684352,
    "longitude": 12.544557,
    "type": "Ambele tururi"
  },
  {
    "number": 103,
    "country": "Danemarca",
    "city": "Copenhaga 2 (Valby)",
    "address": "3F Bygge-, Jord- og Miljøarbejdernes Fagforening, Mølle Allé 30, 2500 Valby, Copenhagen",
    "location": "Altele",
    "latitude": 55.665814,
    "longitude": 12.515472,
    "type": "Ambele tururi"
  },
  {
    "number": 104,
    "country": "Danemarca",
    "city": "Taastrup",
    "address": "3F Høje-Taastrup, Pile Allé 18-20, 2630 Taastrup",
    "location": "Altele",
    "latitude": 55.64735,
    "longitude": 12.29584,
    "type": "Ambele tururi"
  },
  {
    "number": 105,
    "country": "Danemarca",
    "city": "Hillerød",
    "address": "3F Frederiksborg, Milnersvej 41D, 3400 Hillerød",
    "location": "Altele",
    "latitude": 55.920445,
    "longitude": 12.295151,
    "type": "Ambele tururi"
  },
  {
    "number": 106,
    "country": "Danemarca",
    "city": "Ringsted",
    "address": "3F Midt & Østsjælland, Vibevej 12, 4100 Ringsted",
    "location": "Altele",
    "latitude": 55.441866,
    "longitude": 11.801769,
    "type": "Ambele tururi"
  },
  {
    "number": 107,
    "country": "Danemarca",
    "city": "Odense",
    "address": "Hotel Knudsens Gaard, Hunderupgade 2, 5230 Odense M",
    "location": "Altele",
    "latitude": 55.381421,
    "longitude": 10.394585,
    "type": "Ambele tururi"
  },
  {
    "number": 108,
    "country": "Danemarca",
    "city": "Aabenraa",
    "address": "Hjordkær Forsamlingshus,  Aabenraavej 10, 6230 Rødekro",
    "location": "Altele",
    "latitude": 55.023202,
    "longitude": 9.309033,
    "type": "Ambele tururi"
  },
  {
    "number": 109,
    "country": "Danemarca",
    "city": "Esbjerg",
    "address": "3F Esbjerg Transport, Nyhavnsgade 25, 6700, Esbjerg",
    "location": "Altele",
    "latitude": 55.47294,
    "longitude": 8.432965,
    "type": "Ambele tururi"
  },
  {
    "number": 110,
    "country": "Danemarca",
    "city": "Vejle",
    "address": "3F Vejle, Sjællandsgade 30, 7100 Vejle",
    "location": "Altele",
    "latitude": 55.704053,
    "longitude": 9.544099,
    "type": "Ambele tururi"
  },
  {
    "number": 111,
    "country": "Danemarca",
    "city": "Ringkøbing",
    "address": "3F Ringkøbing-Skjern, Byskellet 33, 6950 Ringkøbing",
    "location": "Altele",
    "latitude": 56.089546,
    "longitude": 8.258841,
    "type": "Ambele tururi"
  },
  {
    "number": 112,
    "country": "Danemarca",
    "city": "Aarhus",
    "address": "3F Aarhus Rymarken, Rymarken 4, 8210 Aarhus",
    "location": "Altele",
    "latitude": 56.167957,
    "longitude": 10.152871,
    "type": "Ambele tururi"
  },
  {
    "number": 113,
    "country": "Danemarca",
    "city": "Skive",
    "address": "Frivilligcenter,  Søndergade 16C, 7800 Skive",
    "location": "Altele",
    "latitude": 56.561646,
    "longitude": 9.025967,
    "type": "Ambele tururi"
  },
  {
    "number": 114,
    "country": "Danemarca",
    "city": "Aalborg",
    "address": "3F Aalborg, Hadsundvej 184, 9000 Aalborg",
    "location": "Altele",
    "latitude": 57.024667,
    "longitude": 9.960125,
    "type": "Ambele tururi"
  },
  {
    "number": 115,
    "country": "Danemarca",
    "city": "Herning",
    "address": "Østergaards Hotel, Silkeborgvej 94, 7400 Herning",
    "location": "Altele",
    "latitude": 56.13417,
    "longitude": 8.996332,
    "type": "Ambele tururi"
  },
  {
    "number": 116,
    "country": "Islanda",
    "city": "Reykjavik",
    "address": "Fosshotel Reykjavík Þórunnartún 1, 105 Reykjavík",
    "location": "Altele",
    "latitude": 64.144391,
    "longitude": -21.909637,
    "type": "Ambele tururi"
  },
  {
    "number": 117,
    "country": "Egipt",
    "city": "Cairo",
    "address": "6 Al Kamel Mohammed, Al Gabalayah, Zamalek, cod poștal 4270122, Cairo",
    "location": "Ambasadă",
    "latitude": 30.058831,
    "longitude": 31.219051,
    "type": "Ambele tururi"
  },
  {
    "number": 118,
    "country": "Elveția",
    "city": "Geneva",
    "address": "Rue Vermont 37 - 39, 1202 Geneva",
    "location": "Altele",
    "latitude": 46.218849,
    "longitude": 6.137178,
    "type": "Ambele tururi"
  },
  {
    "number": 119,
    "country": "Elveția",
    "city": "Cologny",
    "address": "Chemin de la Perriere 6, 1223 Cologny",
    "location": "Misiune Permanentă",
    "latitude": 46.227054,
    "longitude": 6.186391,
    "type": "Ambele tururi"
  },
  {
    "number": 120,
    "country": "Elveția",
    "city": "Berna",
    "address": "Parohia ortodoxă română Sf. M. Mc. Gheorghe, Kastellweg 7, 3004 Bern",
    "location": "Altele",
    "latitude": 46.973886,
    "longitude": 7.450976,
    "type": "Ambele tururi"
  },
  {
    "number": 121,
    "country": "Elveția",
    "city": "Basel",
    "address": "memox.world | Basel City, Elisabethenstrasse 15, 4051 Basel",
    "location": "Altele",
    "latitude": 46.552626,
    "longitude": 6.572298,
    "type": "Ambele tururi"
  },
  {
    "number": 122,
    "country": "Elveția",
    "city": "Bellinzona",
    "address": "Spazio Aperto, Via Gerretta 9a, 6500 Bellinzona",
    "location": "Altele",
    "latitude": 47.552944,
    "longitude": 7.591781,
    "type": "Ambele tururi"
  },
  {
    "number": 123,
    "country": "Elveția",
    "city": "Lausanne",
    "address": "IBIS Lausanne Crissier, Chem. de l'Esparcette 4, 1023 Lausanne",
    "location": "Altele",
    "latitude": 46.201096,
    "longitude": 9.030293,
    "type": "Ambele tururi"
  },
  {
    "number": 124,
    "country": "Elveția",
    "city": "Zürich 1",
    "address": "Holiday Inn Zürich Messe, Wallisellenstrasse 48, 8050 Zürich",
    "location": "Altele",
    "latitude": 47.410524,
    "longitude": 8.552957,
    "type": "Ambele tururi"
  },
  {
    "number": 125,
    "country": "Elveția",
    "city": "Zürich 2",
    "address": "Hilton Garden Inn Zürich Limmattal, Kreuzäckerstrasse 5, 8957 Spreitenbach",
    "location": "Altele",
    "latitude": 47.417848,
    "longitude": 8.37782,
    "type": "Ambele tururi"
  },
  {
    "number": 126,
    "country": "Emiratele Arabe Unite",
    "city": "Abu Dhabi",
    "address": "Abu Al Abyad street, villa nr.15, Al Bateen area, cod poștal 70416, Abu Dhabi",
    "location": "Ambasadă",
    "latitude": 24.460533,
    "longitude": 54.348634,
    "type": "Ambele tururi"
  },
  {
    "number": 127,
    "country": "Emiratele Arabe Unite",
    "city": "Dubai 1",
    "address": "Al Safa 2, str. 16A, villa 8",
    "location": "Consulat General",
    "latitude": 25.164597,
    "longitude": 55.232177,
    "type": "Ambele tururi"
  },
  {
    "number": 128,
    "country": "Emiratele Arabe Unite",
    "city": "Dubai 2",
    "address": "Dubai World Trade Center, sala Al Ain, Sheikh Zayed Road",
    "location": "Altele",
    "latitude": 25.22329,
    "longitude": 55.286832,
    "type": "Ambele tururi"
  },
  {
    "number": 129,
    "country": "Estonia",
    "city": "Tallinn",
    "address": "Ravala puiestee 5, etaj 5, 10143",
    "location": "Ambasadă",
    "latitude": 59.433599,
    "longitude": 24.75706,
    "type": "Ambele tururi"
  },
  {
    "number": 130,
    "country": "Etiopia",
    "city": "Addis Abeba",
    "address": "Kirkos subcity, Woreda 04, House no. 1142, P.O. box 2478",
    "location": "Ambasadă",
    "latitude": 8.986539,
    "longitude": 38.770965,
    "type": "Ambele tururi"
  },
  {
    "number": 131,
    "country": "Filipine",
    "city": "Manila",
    "address": "strada Legaspi nr.150, G.C.Corporate Plaza, et.6, unit 601-602, Legaspi Village, Makati, cod poștal 1229",
    "location": "Ambasadă",
    "latitude": 14.556542,
    "longitude": 121.016412,
    "type": "Ambele tururi"
  },
  {
    "number": 132,
    "country": "Finlanda",
    "city": "Helsinki",
    "address": "Stenbäckinkatu 24, 00250",
    "location": "Ambasadă",
    "latitude": 60.186489,
    "longitude": 24.910082,
    "type": "Ambele tururi"
  },
  {
    "number": 133,
    "country": "Finlanda",
    "city": "Mariehamn",
    "address": "Norragatan 10A, 22100",
    "location": "Altele",
    "latitude": 60.098855,
    "longitude": 19.938762,
    "type": "Ambele tururi"
  },
  {
    "number": 134,
    "country": "Finlanda",
    "city": "Tampere",
    "address": "Vuoreksen monitoimitila (Vuores multipurpose space), Vuoreksen Puistokatu 94, 33870",
    "location": "Altele",
    "latitude": 61.431012,
    "longitude": 23.810205,
    "type": "Alegeri prezidentiale tur 1 si alegeri parlamentare"
  },
  {
    "number": 135,
    "country": "Finlanda",
    "city": "Turku",
    "address": "Yliopistonkatu 19, 20100",
    "location": "Altele",
    "latitude": 61.498301,
    "longitude": 23.771302,
    "type": "Ambele tururi"
  },
  {
    "number": 136,
    "country": "Franța",
    "city": "Paris 1",
    "address": "123 Rue Saint-Dominique, 75007 Paris",
    "location": "Ambasadă ",
    "latitude": 48.85857,
    "longitude": 2.30296,
    "type": "Ambele tururi"
  },
  {
    "number": 137,
    "country": "Franța",
    "city": "Paris 2",
    "address": "123 Rue Saint-Dominique,75007 Paris",
    "location": "Ambasadă ",
    "latitude": 48.85842,
    "longitude": 2.30293,
    "type": "Ambele tururi"
  },
  {
    "number": 138,
    "country": "Franța",
    "city": "Paris 3",
    "address": "3 Rue de l'Exposition, 75007 Paris",
    "location": "Consulat General ",
    "latitude": 48.858579,
    "longitude": 2.302985,
    "type": "Ambele tururi"
  },
  {
    "number": 139,
    "country": "Franța",
    "city": "Paris 4",
    "address": "1 Rue de l'Exposition, 75007 Paris",
    "location": "ICR",
    "latitude": 48.85799,
    "longitude": 2.303008,
    "type": "Ambele tururi"
  },
  {
    "number": 140,
    "country": "Franța",
    "city": "Paris 5",
    "address": "1 Rue de l'Exposition, 75007 Paris",
    "location": "ICR",
    "latitude": 48.858215,
    "longitude": 2.302762,
    "type": "Ambele tururi"
  },
  {
    "number": 141,
    "country": "Franța",
    "city": " Rungis",
    "address": "Mercure Paris Orly Rungis Aéroport,  20 Avenue Charles Lindbergh, 94656 Rungis",
    "location": " Altele",
    "latitude": 48.756806,
    "longitude": 2.346335,
    "type": "Ambele tururi"
  },
  {
    "number": 142,
    "country": "Franța",
    "city": "Issy-les-Moulineaux",
    "address": "Agora, Salle Saint-Lazare 2, 18 rue Aristide Briand, 92130 Issy-les-Moulineaux",
    "location": " Altele",
    "latitude": 48.820484,
    "longitude": 2.255362,
    "type": "Ambele tururi"
  },
  {
    "number": 143,
    "country": "Franța",
    "city": "Rueil-Malmaison",
    "address": "Novotel Paris Rueil-Malmaison, 21 Avenue Edouard Belin, 92500 Rueil-Malmaison",
    "location": " Altele",
    "latitude": 48.88816,
    "longitude": 2.168247,
    "type": "Alegeri prezidentiale"
  },
  {
    "number": 144,
    "country": "Franța",
    "city": "Drancy",
    "address": "Salle Paul Vaillant Couturier, 27 Rue Roger Petieu - bâtiment C - ESC F, 93700 Drancy",
    "location": "Altele",
    "latitude": 48.923345,
    "longitude": 2.448113,
    "type": "Ambele tururi"
  },
  {
    "number": 145,
    "country": "Franța",
    "city": "La Courneuve",
    "address": "Salle Philippe Roux, 58 rue de la Convention, 93120 La Courneuve",
    "location": "Altele",
    "latitude": 48.916929,
    "longitude": 2.456806,
    "type": "Ambele tururi"
  },
  {
    "number": 146,
    "country": "Franța",
    "city": "Le Blanc-Mesnil 1",
    "address": "Centre Technique Municipal,  2 Avenue Albert Einstein, 93150 Le Blanc-Mesnil",
    "location": "Altele",
    "latitude": 48.927038,
    "longitude": 2.39279,
    "type": "Ambele tururi"
  },
  {
    "number": 147,
    "country": "Franța",
    "city": "Le Blanc-Mesnil 2",
    "address": "Centre Technique Municipal,  2 Avenue Albert Einstein, 93150 Le Blanc-Mesnil",
    "location": "Altele",
    "latitude": 48.947527,
    "longitude": 2.467339,
    "type": "Ambele tururi"
  },
  {
    "number": 148,
    "country": "Franța",
    "city": "Le Blanc-Mesnil 3",
    "address": "Centre Technique Municipal,  2 Avenue Albert Einstein, 93150 Le Blanc-Mesnil",
    "location": "Altele",
    "latitude": 48.947361,
    "longitude": 2.467117,
    "type": "Ambele tururi"
  },
  {
    "number": 149,
    "country": "Franța",
    "city": "Montreuil 1",
    "address": "Sala Centrului cultural Ștefan cel Mare – 27 Rue de Roches, 93100 Montreuil",
    "location": "Altele",
    "latitude": 48.94731,
    "longitude": 2.46761,
    "type": "Ambele tururi"
  },
  {
    "number": 150,
    "country": "Franța",
    "city": "Montreuil 2",
    "address": "Salle Franklin, 60 rue Franklin, 93100 Montreuil",
    "location": "Altele",
    "latitude": 48.863474,
    "longitude": 2.444304,
    "type": "Ambele tururi"
  },
  {
    "number": 151,
    "country": "Franța",
    "city": "Pantin 1",
    "address": "PLATAN - 62 Rue Denis Papin, 93500 Pantin",
    "location": "Altele",
    "latitude": 48.904211,
    "longitude": 2.400528,
    "type": "Ambele tururi"
  },
  {
    "number": 152,
    "country": "Franța",
    "city": "Pantin 2",
    "address": "PLATAN - 62 Rue Denis Papin, 93500 Pantin",
    "location": "Altele",
    "latitude": 48.904168,
    "longitude": 2.400456,
    "type": "Ambele tururi"
  },
  {
    "number": 153,
    "country": "Franța",
    "city": "Bry-sur-Marne",
    "address": "31-33 rue des Clotais, 94360 Bry-sur-Marne",
    "location": "Altele",
    "latitude": 48.890253,
    "longitude": 2.403308,
    "type": "Ambele tururi"
  },
  {
    "number": 154,
    "country": "Franța",
    "city": "Melun",
    "address": "Maison des Associations Jean XXIII, 27 Rue Edmond Michelet, 77000 Melun",
    "location": "Altele",
    "latitude": 48.549209,
    "longitude": 2.653245,
    "type": "Ambele tururi"
  },
  {
    "number": 155,
    "country": "Franța",
    "city": "Brest",
    "address": "Salle Pierre Corre, 8 rue Pierre Corre, 29200 Brest",
    "location": "Altele",
    "latitude": 48.414015,
    "longitude": -4.492611,
    "type": "Ambele tururi"
  },
  {
    "number": 156,
    "country": "Franța",
    "city": "Trappes",
    "address": "Maison de la Boissière, 28 Rue du Centre, 78190 Trappes",
    "location": "Altele",
    "latitude": 48.77132,
    "longitude": 1.98045,
    "type": "Alegeri prezidentiale tur 1"
  },
  {
    "number": 157,
    "country": "Franța",
    "city": "Le Mans",
    "address": "Maison de quartier Jean Ferrat, 115 Rue des Sablons, 72100 Le Mans",
    "location": "",
    "latitude": 48.390962,
    "longitude": -4.490346,
    "type": "Alegeri prezidentiale tur 1"
  },
  {
    "number": 158,
    "country": "Franța",
    "city": "Calais",
    "address": "Salle Municipale Paul Caron, 2 Rue du Général Margueritte, 62100 Calais",
    "location": "Altele",
    "latitude": 48.77133,
    "longitude": 1.980455,
    "type": "Ambele tururi"
  },
  {
    "number": 159,
    "country": "Franța",
    "city": "Bordeaux",
    "address": "Salle Municipale Quintin Loucheur, 96 rue de la Béchade, 33000 Bordeaux",
    "location": "Altele",
    "latitude": 47.988901,
    "longitude": 0.21446,
    "type": "Ambele tururi"
  },
  {
    "number": 160,
    "country": "Franța",
    "city": "Pessac",
    "address": "Salle de la Fraternité,  7 Avenue Louis Laugaa, 33600 Pessac             ",
    "location": "Altele",
    "latitude": 44.805695,
    "longitude": -0.629014,
    "type": "Ambele tururi"
  },
  {
    "number": 160,
    "country": "Franța",
    "city": "Pessac",
    "address": "Salle du Petit Foyer, 9 rue des Poilus, 33600 Pessac ",
    "location": "Altele",
    "latitude": 44.805341,
    "longitude": -0.631797,
    "type": "Alegeri prezidentiale"
  },
  {
    "number": 162,
    "country": "Franța",
    "city": "Lille 1",
    "address": "Conseil Régional Hauts-de-France, 151 Av. du Président Hoover, 59800 Lille ",
    "location": "Altele",
    "latitude": 50.629151,
    "longitude": 3.078535,
    "type": "Alegeri prezidentiale"
  },
  {
    "number": 163,
    "country": "Franța",
    "city": "Lille 2",
    "address": "Conseil Régional Hauts-de-France, 151 Av. du Président Hoover, 59800 Lille   ",
    "location": "Altele",
    "latitude": 50.629192,
    "longitude": 3.078574,
    "type": "Alegeri prezidentiale"
  },
  {
    "number": 164,
    "country": "Franța",
    "city": "Loudéac",
    "address": "Bâtiment la Providence, Salle n° 3, 36 Rue de Moncontour, 22600, Loudéac",
    "location": "Altele",
    "latitude": 50.634732,
    "longitude": 3.080795,
    "type": "Ambele tururi"
  },
  {
    "number": 165,
    "country": "Franța",
    "city": "Rennes",
    "address": "Le Triangle- Cité de la danse, Boulevard de Yougoslavie, 35201 Rennes",
    "location": "Altele",
    "latitude": 48.088607,
    "longitude": -1.659411,
    "type": "Ambele tururi"
  },
  {
    "number": 166,
    "country": "Franța",
    "city": "Nantes 1",
    "address": "Maison de l'Europe, Salle Agora, 90 Boulevard de la Prairie au Duc, 44200 Nantes",
    "location": "Altele",
    "latitude": 47.203996,
    "longitude": -1.56841,
    "type": "Ambele tururi"
  },
  {
    "number": 167,
    "country": "Franța",
    "city": "Nantes 2",
    "address": "Centre d'affaires Nuage B Nantes, Immeuble Kanoa, 6 Rue René Viviani, 44200 Nantes",
    "location": "Altele",
    "latitude": 47.207495,
    "longitude": -1.536191,
    "type": "Ambele tururi"
  },
  {
    "number": 168,
    "country": "Franța",
    "city": "Troyes",
    "address": "Maison de Quartier des Marots, Salle Les Maraux de Pouilly, 23 rue Trouvassot, 10000 Troyes ",
    "location": "Altele",
    "latitude": 48.307847,
    "longitude": 4.04977,
    "type": "Ambele tururi"
  },
  {
    "number": 169,
    "country": "Franța",
    "city": "Aulnay-sous-Bois",
    "address": "Foyer Dumont, 12 Boulevard Gallieni, 93600 Aulnay-sous-Bois",
    "location": "Altele",
    "latitude": 47.204339,
    "longitude": -1.559993,
    "type": "Ambele tururi"
  },
  {
    "number": 170,
    "country": "Franța",
    "city": "Gagny",
    "address": "18 bis Allée des Chênes, 93220 Gagny",
    "location": "Altele",
    "latitude": 48.894817,
    "longitude": 2.538548,
    "type": "Ambele tururi"
  },
  {
    "number": 171,
    "country": "Franța",
    "city": "Villeneuve-Saint-Georges",
    "address": "Maison pour tous, Rue des Chênes, 94190 Villeneuve-Saint-Georges",
    "location": "Altele",
    "latitude": 48.735625,
    "longitude": 2.461343,
    "type": "Ambele tururi"
  },
  {
    "number": 172,
    "country": "Franța",
    "city": "Champigny-sur-Marne",
    "address": " 28 avenue Colombe Hardelet, 94500 Champigny sur Marne",
    "location": "Altele",
    "latitude": 48.811601,
    "longitude": 2.544041,
    "type": "Ambele tururi"
  },
  {
    "number": 173,
    "country": "Franța",
    "city": "Villemomble",
    "address": "Médiathèque Robert Calméjane, Salle Mermoz, 118 Grande Rue, 93250 Villemomble",
    "location": "Altele",
    "latitude": 48.882495,
    "longitude": 2.516649,
    "type": "Ambele tururi"
  },
  {
    "number": 174,
    "country": "Franța",
    "city": "Tours",
    "address": "Le Grand Hotel de Tours, 5 Place du Général Leclerc-37000 Tours",
    "location": "Altele",
    "latitude": 47.389919,
    "longitude": 0.692474,
    "type": "Ambele tururi"
  },
  {
    "number": 175,
    "country": "Franța",
    "city": "Saran",
    "address": " Hotel Campanile Orléans Nord Saran, 744 Route Nationale 20, 45770 Saran",
    "location": "Altele",
    "latitude": 47.944569,
    "longitude": 1.893383,
    "type": "Ambele tururi"
  },
  {
    "number": 176,
    "country": "Franța",
    "city": "Ivry-sur-Seine",
    "address": "Espace Robespierre, 2 rue Robespierre, 94200 Ivry-sur-Seine",
    "location": "Altele",
    "latitude": 47.376631,
    "longitude": 0.696257,
    "type": "Ambele tururi"
  },
  {
    "number": 177,
    "country": "Franța",
    "city": "Rouen",
    "address": "Maison de quartier Cavelier de la Salle, 1 Rue Pierre Forfait, 76100 Rouen",
    "location": "Altele",
    "latitude": 49.437192,
    "longitude": 1.081843,
    "type": "Ambele tururi"
  },
  {
    "number": 178,
    "country": "Franța",
    "city": "La Ferté-sous-Jouarre",
    "address": "10 Allée du Jumelage, 77260 La Ferté-sous-Jouarre",
    "location": "Altele",
    "latitude": 48.8109,
    "longitude": 2.383564,
    "type": "Ambele tururi"
  },
  {
    "number": 179,
    "country": "Franța",
    "city": "Sarcelles",
    "address": "Maison de Quartier Les Vignes Blanches, 9 Avenue Anna de Noailles, 95200 Sarcelles ",
    "location": "Altele",
    "latitude": 48.975841,
    "longitude": 2.37367,
    "type": "Alegeri prezidentiale"
  },
  {
    "number": 180,
    "country": "Franța",
    "city": "Poissy",
    "address": "Hotel Restaurant L'Esturgeon,  6 Cours du 14 Juillet, 78300 Poissy",
    "location": "Altele",
    "latitude": 48.932936,
    "longitude": 2.037719,
    "type": "Ambele tururi"
  },
  {
    "number": 181,
    "country": "Principatul Monaco",
    "city": "Monaco",
    "address": "Hotel Le Méridien Beach Plaza,  22 Avenue Princesse Grâce, 98000  Monte Carlo, Monaco",
    "location": "Altele",
    "latitude": 43.74834,
    "longitude": 7.43583,
    "type": "Ambele tururi"
  },
  {
    "number": 182,
    "country": "Franța",
    "city": "Lyon 1",
    "address": "29 rue de Bonnel 69003 Lyon",
    "location": "Consulat general",
    "latitude": 45.76196,
    "longitude": 4.8461,
    "type": "Ambele tururi"
  },
  {
    "number": 183,
    "country": "Franța",
    "city": "Lyon 2",
    "address": "111 rue Smith 69002 Lyon",
    "location": "Altele",
    "latitude": 45.74033,
    "longitude": 4.82051,
    "type": "Ambele tururi"
  },
  {
    "number": 184,
    "country": "Franța",
    "city": "Saint Genis Laval",
    "address": "69 rue des Collonges 69230 Saint Genis Laval",
    "location": "Altele",
    "latitude": 45.69287,
    "longitude": 4.80355,
    "type": "Ambele tururi"
  },
  {
    "number": 185,
    "country": "Franța",
    "city": "Saint Etienne",
    "address": "4 rue Andre Malraux 42000 Saint Etienne",
    "location": "Altele",
    "latitude": 45.439827,
    "longitude": 4.38516,
    "type": "Ambele tururi"
  },
  {
    "number": 186,
    "country": "Franța",
    "city": "Dijon",
    "address": "40 rue Leonard de Vinci 21000 Dijon",
    "location": "Altele",
    "latitude": 47.303424,
    "longitude": 5.010551,
    "type": "Ambele tururi"
  },
  {
    "number": 187,
    "country": "Franța",
    "city": "Clermont Ferrand",
    "address": "120 avenue de la Republique 63000 Clermont Ferrand",
    "location": "Altele",
    "latitude": 45.78877,
    "longitude": 3.10912,
    "type": "Ambele tururi"
  },
  {
    "number": 188,
    "country": "Franța",
    "city": "Ambilly",
    "address": "2 rue de la Martiniere 74100 Ambilly",
    "location": "Altele",
    "latitude": 46.19925,
    "longitude": 6.22498,
    "type": "Ambele tururi"
  },
  {
    "number": 189,
    "country": "Franța",
    "city": "Saint Martin d'Heres",
    "address": "10 place Paul Eluard 38400 Saint Martin d'Heres",
    "location": "Altele",
    "latitude": 45.165365,
    "longitude": 5.74797,
    "type": "Ambele tururi"
  },
  {
    "number": 190,
    "country": "Franța",
    "city": "Marsilia 1",
    "address": "2 rue Henri Barbusse, 13001 Marseille",
    "location": "Altele",
    "latitude": 43.29862,
    "longitude": 5.37461,
    "type": "Ambele tururi"
  },
  {
    "number": 191,
    "country": "Franța",
    "city": "Marsilia 2",
    "address": " 2 rue Henri Barbusse, 13001 Marseille",
    "location": "Altele",
    "latitude": 43.29862,
    "longitude": 5.37461,
    "type": "Ambele tururi"
  },
  {
    "number": 192,
    "country": "Franța",
    "city": "Marignane",
    "address": "2 Rue de Provence, 13700 Marignane",
    "location": "Altele",
    "latitude": 43.41611,
    "longitude": 5.22212,
    "type": "Ambele tururi"
  },
  {
    "number": 193,
    "country": "Franța",
    "city": "Nisa 1",
    "address": "4, Rue Ribotti, parter 06300 Nice",
    "location": "Altele",
    "latitude": 43.702225,
    "longitude": 7.283973,
    "type": "Ambele tururi"
  },
  {
    "number": 194,
    "country": "Franța",
    "city": "Nisa 2",
    "address": "4, Rue Ribotti, parter 06300 Nice",
    "location": "Altele",
    "latitude": 43.702174,
    "longitude": 7.283966,
    "type": "Ambele tururi"
  },
  {
    "number": 195,
    "country": "Franța",
    "city": "Cannes",
    "address": "1 avenue des Broussailles, 06400 Cannes",
    "location": "Altele",
    "latitude": 43.561305,
    "longitude": 7.004688,
    "type": "Ambele tururi"
  },
  {
    "number": 196,
    "country": "Franța",
    "city": "Montpellier",
    "address": "14 Dsc en Barrat, 34000 Montpellier",
    "location": "Altele",
    "latitude": 43.613398,
    "longitude": 3.880453,
    "type": "Alegeri prezidentiale"
  },
  {
    "number": 197,
    "country": "Franța",
    "city": "Toulouse",
    "address": "1 Rue Léon Jouhaux 31500 Toulouse",
    "location": "Altele",
    "latitude": 43.613235,
    "longitude": 1.460589,
    "type": "Alegeri prezidentiale"
  },
  {
    "number": 198,
    "country": "Franța",
    "city": "Bastia (Corsica)",
    "address": "Rue San-Angelo 20200 Bastia",
    "location": "Altele",
    "latitude": 42.694405,
    "longitude": 9.448676,
    "type": "Ambele tururi"
  },
  {
    "number": 199,
    "country": "Franța",
    "city": "Ajaccio (Corsica)",
    "address": "73 cours Napoléon 20000 Ajaccio ",
    "location": "Altele",
    "latitude": 41.92713,
    "longitude": 8.738273,
    "type": "Ambele tururi"
  },
  {
    "number": 200,
    "country": "Franța",
    "city": "Strasbourg 1",
    "address": "41 rue Schweighaeuser, 67000 Strasbourg",
    "location": "Consulat General",
    "latitude": 48.58841,
    "longitude": 7.76912,
    "type": "Ambele tururi"
  },
  {
    "number": 201,
    "country": "Franța",
    "city": "Strasbourg 2",
    "address": "41 rue Schweighaeuser, 67000 Strasbourg",
    "location": "Consulat General",
    "latitude": 48.58834,
    "longitude": 7.76899,
    "type": "Ambele tururi"
  },
  {
    "number": 202,
    "country": "Franța",
    "city": "Colmar",
    "address": "Parc des Expositions, avenue de la Foire aux Vins, 68000 Colmar",
    "location": "Altele",
    "latitude": 48.098651,
    "longitude": 7.359863,
    "type": "Ambele tururi"
  },
  {
    "number": 203,
    "country": "Franța",
    "city": "Nancy",
    "address": "Domaine de l'Asnee, 11 rue de Laxou, 54600 Villers-les-Nancy",
    "location": "Altele",
    "latitude": 48.67439,
    "longitude": 6.143037,
    "type": "Ambele tururi"
  },
  {
    "number": 204,
    "country": "Georgia",
    "city": "Tbilisi",
    "address": "Strada Lvovi nr. 7, cartier Saburtalo, Tbilisi, cod poștal 0160",
    "location": "Ambasadă",
    "latitude": 41.73243,
    "longitude": 44.76635,
    "type": "Ambele tururi"
  },
  {
    "number": 205,
    "country": "Germania",
    "city": "Berlin 1",
    "address": "Dorotheenstr.62-66, 10117, Berlin ",
    "location": "Ambasadă",
    "latitude": 52.51883,
    "longitude": 13.386567,
    "type": "Ambele tururi"
  },
  {
    "number": 206,
    "country": "Germania",
    "city": "Berlin 2",
    "address": "Dorotheenstr.62-66, 10117, Berlin ",
    "location": "Ambasadă",
    "latitude": 52.51847,
    "longitude": 13.38659,
    "type": "Ambele tururi"
  },
  {
    "number": 207,
    "country": "Germania",
    "city": "Berlin 3",
    "address": "Dorotheenstr.62-66, 10117, Berlin",
    "location": "Ambasadă",
    "latitude": 52.51877,
    "longitude": 13.386601,
    "type": "Ambele tururi"
  },
  {
    "number": 208,
    "country": "Germania",
    "city": "Braunschweig",
    "address": "Madamenweg 77, 38120, Braunschweig",
    "location": "Altele",
    "latitude": 52.25877,
    "longitude": 10.48226,
    "type": "Ambele tururi"
  },
  {
    "number": 209,
    "country": "Germania",
    "city": "Bremen",
    "address": "An der Weide 50, 28195, Bremen",
    "location": "Altele",
    "latitude": 53.08143,
    "longitude": 8.81521,
    "type": "Ambele tururi"
  },
  {
    "number": 210,
    "country": "Germania",
    "city": "Dresden",
    "address": "Dr. Külz-Ring 19, 01067, Dresden",
    "location": "Altele",
    "latitude": 51.047714,
    "longitude": 13.739512,
    "type": "Ambele tururi"
  },
  {
    "number": 211,
    "country": "Germania",
    "city": "Erfurt",
    "address": "Leipziger Straße 15, 99085, Erfurt",
    "location": "Altele",
    "latitude": 50.982598,
    "longitude": 11.041568,
    "type": "Ambele tururi"
  },
  {
    "number": 212,
    "country": "Germania",
    "city": "Flensburg",
    "address": "Ansgarstrasse 1, 24944, Flensburg",
    "location": "Altele",
    "latitude": 54.805873,
    "longitude": 9.465141,
    "type": "Ambele tururi"
  },
  {
    "number": 213,
    "country": "Germania",
    "city": "Hamburg 1",
    "address": "Albert-Einstein-Ring 11-15, 22761, Hamburg",
    "location": "Altele",
    "latitude": 53.57494,
    "longitude": 9.88799,
    "type": "Ambele tururi"
  },
  {
    "number": 214,
    "country": "Germania",
    "city": "Hamburg 2",
    "address": "Jessenstraße 1-3, 22767, Hamburg",
    "location": "Altele",
    "latitude": 53.550947,
    "longitude": 9.946551,
    "type": "Ambele tururi"
  },
  {
    "number": 215,
    "country": "Germania",
    "city": "Hanovra 1",
    "address": "Dornierstr.2, 30179, Hanovra",
    "location": "Altele",
    "latitude": 52.417177,
    "longitude": 9.747302,
    "type": "Ambele tururi"
  },
  {
    "number": 216,
    "country": "Germania",
    "city": "Hanovra 2",
    "address": "Dornierstr.2a, 30179, Hanovra",
    "location": "Altele",
    "latitude": 52.417364,
    "longitude": 9.747185,
    "type": "Ambele tururi"
  },
  {
    "number": 217,
    "country": "Germania",
    "city": "Kiel",
    "address": "Waisenhofstraße 3, 24103, Kiel",
    "location": "Altele",
    "latitude": 54.32151,
    "longitude": 10.131628,
    "type": "Ambele tururi"
  },
  {
    "number": 218,
    "country": "Germania",
    "city": "Leipzig",
    "address": " Burgplatz 1, 04109, Leipzig",
    "location": "Altele",
    "latitude": 51.336883,
    "longitude": 12.37212,
    "type": "Ambele tururi"
  },
  {
    "number": 219,
    "country": "Germania",
    "city": "Lübeck",
    "address": "Bei der Lohmühle 13, 23554, Lübeck",
    "location": "Altele",
    "latitude": 53.87969,
    "longitude": 10.6681,
    "type": "Ambele tururi"
  },
  {
    "number": 220,
    "country": "Germania",
    "city": "Quakenbrück",
    "address": "Am Deich 20 49610, Quakenbrück",
    "location": "Altele",
    "latitude": 52.672045,
    "longitude": 7.965859,
    "type": "Ambele tururi"
  },
  {
    "number": 221,
    "country": "Germania",
    "city": "Essen (Oldenburg)",
    "address": "Am Kirchplatz 3 49632, Essen (Oldenburg)",
    "location": "Altele",
    "latitude": 52.717261,
    "longitude": 7.940914,
    "type": "Ambele tururi"
  },
  {
    "number": 222,
    "country": "Germania",
    "city": "Sögel",
    "address": "Püttkesberge 13, 49751, Sögel",
    "location": "Altele",
    "latitude": 52.83363,
    "longitude": 7.5141,
    "type": "Ambele tururi"
  },
  {
    "number": 223,
    "country": "Germania",
    "city": "Bonn 1",
    "address": "Legionsweg 14, 53117 Bonn",
    "location": "Consulat",
    "latitude": 50.750541,
    "longitude": 7.1012,
    "type": "Ambele tururi"
  },
  {
    "number": 224,
    "country": "Germania",
    "city": "Bonn 2",
    "address": "Legionsweg 14, 53117 Bonn",
    "location": "Consulat",
    "latitude": 50.750541,
    "longitude": 7.1012,
    "type": "Ambele tururi"
  },
  {
    "number": 225,
    "country": "Germania",
    "city": "Bonn 3",
    "address": "Legionsweg 14, 53117 Bonn",
    "location": "Consulat",
    "latitude": 50.750541,
    "longitude": 7.1012,
    "type": "Ambele tururi"
  },
  {
    "number": 226,
    "country": "Germania",
    "city": "Köln",
    "address": "Parohia Românească – 51065 Köln, Elisabeth-Breuer-Straße 48",
    "location": "Altele",
    "latitude": 50.96148,
    "longitude": 7.01233,
    "type": "Ambele tururi"
  },
  {
    "number": 227,
    "country": "Germania",
    "city": "Neuss",
    "address": "Nixhütter Weg 85, 41468 Neuss",
    "location": "Altele",
    "latitude": 51.172454,
    "longitude": 6.715343,
    "type": "Ambele tururi"
  },
  {
    "number": 228,
    "country": "Germania",
    "city": "Duisburg",
    "address": "Molbergstraße 14, 47249 Duisburg",
    "location": "Altele",
    "latitude": 51.380874,
    "longitude": 6.744412,
    "type": "Ambele tururi"
  },
  {
    "number": 229,
    "country": "Germania",
    "city": "Dortmund",
    "address": "Zum Lonnenhohl 36, 44319 Dortmund",
    "location": "Altele",
    "latitude": 51.531391,
    "longitude": 7.632921,
    "type": "Ambele tururi"
  },
  {
    "number": 230,
    "country": "Germania",
    "city": "Hamm",
    "address": "Caldenhofer Weg 192, Haus 6, den Raum 4, Hamm",
    "location": "Altele",
    "latitude": 51.672439,
    "longitude": 7.845743,
    "type": "Ambele tururi"
  },
  {
    "number": 231,
    "country": "Germania",
    "city": "Gütersloh",
    "address": "Marienfelderstrasse 4A, 33330, Gutersloh",
    "location": "Altele",
    "latitude": 51.91035,
    "longitude": 8.37059,
    "type": "Ambele tururi"
  },
  {
    "number": 232,
    "country": "Germania",
    "city": "Bielefeld",
    "address": "Biserica Ortodoxă Română, Feilenhauerweg 2 33659 Bielefeld",
    "location": "Altele",
    "latitude": 51.96892,
    "longitude": 8.54573,
    "type": "Ambele tururi"
  },
  {
    "number": 233,
    "country": "Germania",
    "city": "Paderborn",
    "address": "Klingenderstrasse 13, 33100 Paderborn",
    "location": "Altele",
    "latitude": 51.72777,
    "longitude": 8.77629,
    "type": "Ambele tururi"
  },
  {
    "number": 234,
    "country": "Germania",
    "city": "Kassel",
    "address": "Parohia Ortodoxă Română, Friedrich Eberth Strasse 249, 34119, Kassel",
    "location": "Altele",
    "latitude": 51.31533,
    "longitude": 9.45294,
    "type": "Ambele tururi"
  },
  {
    "number": 235,
    "country": "Germania",
    "city": "Langeselbold",
    "address": "Sediu KIRCHHOF, Am Seegraben 4, 63505, Langenselbold",
    "location": "Altele",
    "latitude": 50.16383,
    "longitude": 9.04681,
    "type": "Ambele tururi"
  },
  {
    "number": 236,
    "country": "Germania",
    "city": "Offenbach 1",
    "address": "Carl-Legien-Str. 15, 63073 Offenbach",
    "location": "Altele",
    "latitude": 50.083666,
    "longitude": 8.836164,
    "type": "Ambele tururi"
  },
  {
    "number": 237,
    "country": "Germania",
    "city": "Offenbach 2",
    "address": "Carl-Legien-Str. 15, 63073 Offenbach",
    "location": "Altele",
    "latitude": 50.083677,
    "longitude": 8.836333,
    "type": "Ambele tururi"
  },
  {
    "number": 238,
    "country": "Germania",
    "city": "Frankfurt",
    "address": "Sediu ANTAL, Im Bärengarten 11, 60599 Frankfurt",
    "location": "Altele",
    "latitude": 50.10364,
    "longitude": 8.71336,
    "type": "Ambele tururi"
  },
  {
    "number": 239,
    "country": "Germania",
    "city": "Mainz",
    "address": "Anni-Eisler-Lehmannstraße 3, 55122 Mainz",
    "location": "Altele",
    "latitude": 50.006687,
    "longitude": 8.25171,
    "type": "Ambele tururi"
  },
  {
    "number": 240,
    "country": "Germania",
    "city": "Bellheim",
    "address": "Blumenstrasse 12 76756 Bellheim",
    "location": "Altele",
    "latitude": 49.191553,
    "longitude": 8.284139,
    "type": "Ambele tururi"
  },
  {
    "number": 241,
    "country": "Germania",
    "city": "Neustadt an der Weinstrasse",
    "address": "Le Quartier Hornbach 13, 67433 Neustadt an der Weinstraße",
    "location": "Altele",
    "latitude": 49.341545,
    "longitude": 8.166912,
    "type": "Ambele tururi"
  },
  {
    "number": 242,
    "country": "Germania",
    "city": "Trier",
    "address": "Hotel Mercure, Porta Nigra Platz 1, 54292, Trier",
    "location": "Altele",
    "latitude": 49.7603,
    "longitude": 6.644396,
    "type": "Ambele tururi"
  },
  {
    "number": 243,
    "country": "Germania",
    "city": "Dilingen",
    "address": "Industriestraße 60, 66763 Dilingen",
    "location": "Altele",
    "latitude": 49.346626,
    "longitude": 6.719731,
    "type": "Ambele tururi"
  },
  {
    "number": 244,
    "country": "Germania",
    "city": "München 1",
    "address": "Smartvillage - Konferenzraum, Rosenkavalierplatz 14, cod poștal 81925, München",
    "location": "Altele",
    "latitude": 48.15118,
    "longitude": 11.61883,
    "type": "Ambele tururi"
  },
  {
    "number": 245,
    "country": "Germania",
    "city": "München 2",
    "address": "Smartvillage - Konferenzraum, Rosenkavalierplatz 14, cod poștal 81925, München",
    "location": "Altele",
    "latitude": 48.151098,
    "longitude": 11.61893,
    "type": "Ambele tururi"
  },
  {
    "number": 246,
    "country": "Germania",
    "city": "München 3",
    "address": "Smartvillage - Konferenzraum, Rosenkavalierplatz 14, cod poștal 81925, München",
    "location": "Altele",
    "latitude": 48.15105,
    "longitude": 11.618939,
    "type": "Ambele tururi"
  },
  {
    "number": 247,
    "country": "Germania",
    "city": "München 4",
    "address": "Smartvillage - Konferenzraum, Rosenkavalierplatz 14, cod poștal 81925, München",
    "location": "Altele",
    "latitude": 48.151118,
    "longitude": 11.619108,
    "type": "Ambele tururi"
  },
  {
    "number": 248,
    "country": "Germania",
    "city": "München 5",
    "address": "Smartvillage - Konferenzraum, Rosenkavalierplatz 14, cod poștal 81925, München",
    "location": "Altele",
    "latitude": 48.151066,
    "longitude": 11.619119,
    "type": "Ambele tururi"
  },
  {
    "number": 249,
    "country": "Germania",
    "city": "Aschaffenburg",
    "address": "Pfarrei St. Konrad, Bussardweg 25, cod poștal 63741, Aschaffenburg",
    "location": "Altele",
    "latitude": 49.9919,
    "longitude": 9.11515,
    "type": "Ambele tururi"
  },
  {
    "number": 250,
    "country": "Germania",
    "city": "Augsburg 1",
    "address": "Messe Augsburg - Halle 6, Am Messezentrum 5, cod poștal 86159, Augsburg",
    "location": "Altele",
    "latitude": 48.341026,
    "longitude": 10.89278,
    "type": "Ambele tururi"
  },
  {
    "number": 251,
    "country": "Germania",
    "city": "Augsburg 2",
    "address": "Messe Augsburg - Halle 6, Am Messezentrum 5, cod poștal 86159, Augsburg",
    "location": "Altele",
    "latitude": 48.341059,
    "longitude": 10.893416,
    "type": "Ambele tururi"
  },
  {
    "number": 252,
    "country": "Germania",
    "city": "Augsburg 3",
    "address": "Messe Augsburg - Halle 6, Am Messezentrum 5, cod poștal 86159, Augsburg",
    "location": "Altele",
    "latitude": 48.340717,
    "longitude": 10.892789,
    "type": "Ambele tururi"
  },
  {
    "number": 253,
    "country": "Germania",
    "city": "Augsburg 4",
    "address": "Messe Augsburg - Halle 6, Am Messezentrum 5, cod poștal 86159, Augsburg",
    "location": "Altele",
    "latitude": 48.340744,
    "longitude": 10.893335,
    "type": "Ambele tururi"
  },
  {
    "number": 254,
    "country": "Germania",
    "city": "Bayreuth",
    "address": "Schloßgalerie Bayreuth, Kanalstraße 3, cod poștal 95444, Bayreuth",
    "location": "Altele",
    "latitude": 49.945246,
    "longitude": 11.576326,
    "type": "Ambele tururi"
  },
  {
    "number": 255,
    "country": "Germania",
    "city": "Dachau",
    "address": "Ludwig-Thoma-Haus, Augsburger Straße 23, cod poștal 85221, Dachau",
    "location": "Altele",
    "latitude": 48.260038,
    "longitude": 11.43252,
    "type": "Ambele tururi"
  },
  {
    "number": 256,
    "country": "Germania",
    "city": "Erding",
    "address": "Am Schönen Turm, Landshuter Str. 13, cod poștal 85435, Erding",
    "location": "Altele",
    "latitude": 48.306163,
    "longitude": 11.909456,
    "type": "Ambele tururi"
  },
  {
    "number": 257,
    "country": "Germania",
    "city": "Fürth",
    "address": "Elan, Kapellenstraße 47, cod poștal 90762, Fürth",
    "location": "Altele",
    "latitude": 49.481447,
    "longitude": 10.989082,
    "type": "Ambele tururi"
  },
  {
    "number": 258,
    "country": "Germania",
    "city": "Ingolstadt 1",
    "address": "NH-Tagungsraum, Goethestraße 153, cod poștal 85055, Ingolstadt",
    "location": "Altele",
    "latitude": 48.772456,
    "longitude": 11.45491,
    "type": "Ambele tururi"
  },
  {
    "number": 259,
    "country": "Germania",
    "city": "Ingolstadt 2",
    "address": "NH-Tagungsraum, Goethestraße 153, cod poștal 85055, Ingolstadt",
    "location": "Altele",
    "latitude": 48.772499,
    "longitude": 11.454888,
    "type": "Ambele tururi"
  },
  {
    "number": 260,
    "country": "Germania",
    "city": "Kempten",
    "address": "Tagungszentrum S4, An d. Stadtmauer 4, cod poștal 87435, Kempten",
    "location": "Altele",
    "latitude": 47.724384,
    "longitude": 10.319734,
    "type": "Ambele tururi"
  },
  {
    "number": 261,
    "country": "Germania",
    "city": "Landshut",
    "address": "Ehem. Schule St. Martin, Neustadt 474/475, cod poștal 84028, Landshut",
    "location": "Altele",
    "latitude": 48.53435,
    "longitude": 12.15353,
    "type": "Ambele tururi"
  },
  {
    "number": 262,
    "country": "Germania",
    "city": "Nürnberg-Cadolzburg 1",
    "address": "Sky Center Cadolzburg, Schwadermühlstraße 3, cod poștal 90556, Cadolzburg",
    "location": "Altele",
    "latitude": 49.475993,
    "longitude": 10.861364,
    "type": "Ambele tururi"
  },
  {
    "number": 263,
    "country": "Germania",
    "city": "Nürnberg-Cadolzburg 2",
    "address": "Sky Center Cadolzburg, Schwadermühlstraße 3, cod poștal 90556, Cadolzburg",
    "location": "Altele",
    "latitude": 49.475879,
    "longitude": 10.861185,
    "type": "Ambele tururi"
  },
  {
    "number": 264,
    "country": "Germania",
    "city": "Nürnberg-Cadolzburg 3",
    "address": "Sky Center Cadolzburg, Schwadermühlstraße 3, cod poștal 90556, Cadolzburg",
    "location": "Altele",
    "latitude": 49.47604,
    "longitude": 10.860953,
    "type": "Ambele tururi"
  },
  {
    "number": 265,
    "country": "Germania",
    "city": "Nürnberg-Cadolzburg 4",
    "address": "Sky Center Cadolzburg, Schwadermühlstraße 3, cod poștal 90556, Cadolzburg",
    "location": "Altele",
    "latitude": 49.47608,
    "longitude": 10.861357,
    "type": "Ambele tururi"
  },
  {
    "number": 266,
    "country": "Germania",
    "city": "Regensburg",
    "address": "Bayernhafen, Linzer Str. 6, cod poștal 93055, Regensburg",
    "location": "Altele",
    "latitude": 49.017912,
    "longitude": 12.121996,
    "type": "Ambele tururi"
  },
  {
    "number": 267,
    "country": "Germania",
    "city": "Rosenheim",
    "address": "Kufsteiner Str. 69, cod poștal 83026, Rosenheim",
    "location": "Altele",
    "latitude": 47.847072,
    "longitude": 12.126003,
    "type": "Ambele tururi"
  },
  {
    "number": 268,
    "country": "Germania",
    "city": "Straubing 1",
    "address": "Konferenzraum am Hafen Straubing-Sand, Europaring 4, cod poștal 94315, Straubing",
    "location": "Altele",
    "latitude": 48.894704,
    "longitude": 12.657464,
    "type": "Ambele tururi"
  },
  {
    "number": 269,
    "country": "Germania",
    "city": "Straubing 2",
    "address": "Konferenzraum am Hafen Straubing-Sand, Europaring 4, cod poștal 94315, Straubing",
    "location": "Altele",
    "latitude": 48.894755,
    "longitude": 12.657209,
    "type": "Ambele tururi"
  },
  {
    "number": 270,
    "country": "Germania",
    "city": "Traunreut",
    "address": "Biserica ortodoxă română, Siebenbürgenerstr.2, cod poștal 83301, Traunreut",
    "location": "Altele",
    "latitude": 47.96769,
    "longitude": 12.60646,
    "type": "Ambele tururi"
  },
  {
    "number": 271,
    "country": "Germania",
    "city": "Vilshofen an der Donau",
    "address": "Parohia ortodoxă, Aidenbacher Str. 92, cod poștal 94474, Vilshofen an der Donau",
    "location": "Altele",
    "latitude": 48.61412,
    "longitude": 13.17619,
    "type": "Ambele tururi"
  },
  {
    "number": 272,
    "country": "Germania",
    "city": "Würzburg 1",
    "address": "Gemeindehaus St. Paul, Andreas-Grieser-Str. 2, cod poștal 97084, Würzburg",
    "location": "Altele",
    "latitude": 49.764673,
    "longitude": 9.944485,
    "type": "Ambele tururi"
  },
  {
    "number": 273,
    "country": "Germania",
    "city": "Würzburg 2",
    "address": "Gemeindehaus St. Paul, Andreas-Grieser-Str. 2, cod poștal 97084, Würzburg",
    "location": "Altele",
    "latitude": 49.764654,
    "longitude": 9.944589,
    "type": "Ambele tururi"
  },
  {
    "number": 274,
    "country": "Germania",
    "city": "Stuttgart 1",
    "address": "Hauptstätterstr. 70, 70178 Stuttgart",
    "location": "Consulat General",
    "latitude": 48.76994,
    "longitude": 9.17436,
    "type": "Ambele tururi"
  },
  {
    "number": 275,
    "country": "Germania",
    "city": "Stuttgart 2",
    "address": "Hauptstätterstr. 70, 70178 Stuttgart",
    "location": "Consulat General",
    "latitude": 48.76994,
    "longitude": 9.17436,
    "type": "Ambele tururi"
  },
  {
    "number": 276,
    "country": "Germania",
    "city": "Baden-Baden",
    "address": "Geroldsauer Str. 136, 76534 Baden-Baden",
    "location": "Altele",
    "latitude": 48.727675,
    "longitude": 8.249362,
    "type": "Ambele tururi"
  },
  {
    "number": 277,
    "country": "Germania",
    "city": "Esslingen am Neckar",
    "address": "Finkenweg 20, 73730 Esslingen am Neckar",
    "location": "Altele",
    "latitude": 48.722087,
    "longitude": 9.329549,
    "type": "Ambele tururi"
  },
  {
    "number": 278,
    "country": "Germania",
    "city": "Freiburg im Breisgau 1",
    "address": "Jakob Saur Str. 11, 79199 Kirchzarten",
    "location": "Altele",
    "latitude": 47.968651,
    "longitude": 7.955968,
    "type": "Ambele tururi"
  },
  {
    "number": 279,
    "country": "Germania",
    "city": "Freiburg im Breisgau 2",
    "address": "Jakob Saur Str. 11, 79199 Kirchzarten",
    "location": "Altele",
    "latitude": 47.968638,
    "longitude": 7.955847,
    "type": "Ambele tururi"
  },
  {
    "number": 280,
    "country": "Germania",
    "city": "Heilbronn",
    "address": "Herbststr.16, 74072 Heilbronn",
    "location": "Altele",
    "latitude": 49.13908,
    "longitude": 9.2251,
    "type": "Ambele tururi"
  },
  {
    "number": 281,
    "country": "Germania",
    "city": "Karlsruhe 1",
    "address": "Linkenheimer Landstr. 133, 76149 Karlsruhe",
    "location": "Altele",
    "latitude": 49.045743,
    "longitude": 8.39089,
    "type": "Ambele tururi"
  },
  {
    "number": 282,
    "country": "Germania",
    "city": "Karlsruhe 2",
    "address": "Linkenheimer Landstr. 133, 76149 Karlsruhe",
    "location": "Altele",
    "latitude": 49.04583,
    "longitude": 8.39089,
    "type": "Ambele tururi"
  },
  {
    "number": 283,
    "country": "Germania",
    "city": "Mannheim",
    "address": "O4 4, 68161 Mannheim",
    "location": "Altele",
    "latitude": 49.48651,
    "longitude": 8.46862,
    "type": "Ambele tururi"
  },
  {
    "number": 284,
    "country": "Germania",
    "city": "Pforzheim",
    "address": "Osterfelder Str. 12, 75172 Pforzheim",
    "location": "Altele",
    "latitude": 48.89309,
    "longitude": 8.68854,
    "type": "Ambele tururi"
  },
  {
    "number": 285,
    "country": "Germania",
    "city": "Reutlingen",
    "address": "Ringelbachstraße 195/41, 72762 Reutlingen",
    "location": "Altele",
    "latitude": 48.47713,
    "longitude": 9.19838,
    "type": "Ambele tururi"
  },
  {
    "number": 286,
    "country": "Germania",
    "city": "Schwäbisch Hall",
    "address": "Stauffenbergstraße 35 / 37, 74523 Schwäbisch Hall",
    "location": "Altele",
    "latitude": 49.11462,
    "longitude": 9.77662,
    "type": "Ambele tururi"
  },
  {
    "number": 287,
    "country": "Germania",
    "city": "Sigmaringen",
    "address": "Georg-Zimmerer-Straße 4, 72488 Sigmaringen",
    "location": "Altele",
    "latitude": 48.08505,
    "longitude": 9.21063,
    "type": "Ambele tururi"
  },
  {
    "number": 288,
    "country": "Germania",
    "city": "Singen",
    "address": "Hohgarten 2, 78224 Singen",
    "location": "Altele",
    "latitude": 47.761228,
    "longitude": 8.83416,
    "type": "Ambele tururi"
  },
  {
    "number": 289,
    "country": "Germania",
    "city": "Ulm 1",
    "address": "Böfinger Straße 50, 89073 Ulm",
    "location": "Altele",
    "latitude": 48.41256,
    "longitude": 10.01203,
    "type": "Ambele tururi"
  },
  {
    "number": 290,
    "country": "Germania",
    "city": "Ulm 2",
    "address": "Böfinger Straße 50, 89073 Ulm",
    "location": "Altele",
    "latitude": 48.41251,
    "longitude": 10.01174,
    "type": "Ambele tururi"
  },
  {
    "number": 291,
    "country": "Grecia",
    "city": "Atena 1",
    "address": "strada Emmanouil Benaki 7, cod poștal 15452, Atena",
    "location": "Ambasadă",
    "latitude": 37.98352,
    "longitude": 23.73082,
    "type": "Ambele tururi"
  },
  {
    "number": 292,
    "country": "Grecia",
    "city": "Atena 2",
    "address": "strada Liosion 123, cod poștal 10445, Atena",
    "location": "Altele",
    "latitude": 37.99709,
    "longitude": 23.722,
    "type": "Ambele tururi"
  },
  {
    "number": 293,
    "country": "Grecia",
    "city": "Atena 3",
    "address": "strada Agias Sofias 27, cod poștal 10444, Atena",
    "location": "Altele",
    "latitude": 37.99191,
    "longitude": 23.71823,
    "type": "Ambele tururi"
  },
  {
    "number": 294,
    "country": "Grecia",
    "city": "Aspropyrgos",
    "address": "Bd. Dimokratias F.N., Piața Sintrivani, cod poștal 19300 Aspropyrgos",
    "location": "Altele",
    "latitude": 38.059606,
    "longitude": 23.588975,
    "type": "Ambele tururi"
  },
  {
    "number": 295,
    "country": "Grecia",
    "city": "Chania",
    "address": "strada Piața Eleftherias 1, cod poștal 73134, Chania",
    "location": "Altele",
    "latitude": 35.509622,
    "longitude": 24.030701,
    "type": "Ambele tururi"
  },
  {
    "number": 296,
    "country": "Grecia",
    "city": "Iraklio",
    "address": "strada Athinas 18, cod poștal 71306, Iraklio",
    "location": "Altele",
    "latitude": 35.33347,
    "longitude": 25.137759,
    "type": "Ambele tururi"
  },
  {
    "number": 297,
    "country": "Grecia",
    "city": "Patra",
    "address": "strada Filopoimenos 24, cod poștal 26221, Patra",
    "location": "Altele",
    "latitude": 38.24528,
    "longitude": 21.73223,
    "type": "Ambele tururi"
  },
  {
    "number": 298,
    "country": "Grecia",
    "city": "Preveza",
    "address": "strada Lord Vyrona 6, cod poștal 48100, Preveza",
    "location": "Altele",
    "latitude": 38.95787,
    "longitude": 20.75376,
    "type": "Ambele tururi"
  },
  {
    "number": 299,
    "country": "Grecia",
    "city": "Sparta",
    "address": "Bulevardul Likourgou nr. 89, Sparta, cod poștal 23100",
    "location": "Altele",
    "latitude": 37.07619,
    "longitude": 22.43109,
    "type": "Ambele tururi"
  },
  {
    "number": 300,
    "country": "Grecia",
    "city": "Salonic",
    "address": "Str. Theagenous Charisi, nr. 78, Salonic, CP 54639",
    "location": "Consulat General",
    "latitude": 40.61515,
    "longitude": 22.9633,
    "type": "Ambele tururi"
  },
  {
    "number": 301,
    "country": "Grecia",
    "city": "Larisa",
    "address": "Plateia OSE, nr. 6, Larisa, CP 41223",
    "location": "Altele",
    "latitude": 39.63195,
    "longitude": 22.43379,
    "type": "Ambele tururi"
  },
  {
    "number": 302,
    "country": "India",
    "city": "New Delhi",
    "address": "3/6 Shanti Niketan, New Delhi 110021",
    "location": "Ambasadă",
    "latitude": 28.57752,
    "longitude": 77.17118,
    "type": "Ambele tururi"
  },
  {
    "number": 303,
    "country": "Republica Indonezia",
    "city": "Jakarta",
    "address": "Jl. Teuku Cik Ditiro No.42-A 10, RT.10/RW.5, Menteng, Kec. Menteng, Kota Jakarta Pusat, Daerah Khusus Ibukota Jakarta 10310",
    "location": "Ambasadă",
    "latitude": -6.1981,
    "longitude": 106.83664,
    "type": "Ambele tururi"
  },
  {
    "number": 304,
    "country": "Regatul Hașemit al Iordaniei",
    "city": "Amman",
    "address": "Str. Al-Madeenah Al-Munawarah, nr. 35, Amman, 11181, P.O.Box 2869",
    "location": "Ambasadă",
    "latitude": 31.96433,
    "longitude": 35.86438,
    "type": "Ambele tururi"
  },
  {
    "number": 305,
    "country": "Irak",
    "city": "Bagdad",
    "address": "Mahalla 601, Zuquak 15, Al Mansur street, nr. C45, cod poștal 10001, Bagdad",
    "location": "Ambasadă",
    "latitude": 33.314942,
    "longitude": 44.353793,
    "type": "Ambele tururi"
  },
  {
    "number": 306,
    "country": "Irak",
    "city": "Erbil",
    "address": "Gulan Street, Ster Tower, etaj 7, camera 702, cod poștal 44001, Erbil",
    "location": "Birou consular",
    "latitude": 36.216608,
    "longitude": 44.005331,
    "type": "Ambele tururi"
  },
  {
    "number": 307,
    "country": "Republica Islamică Iran",
    "city": "Teheran",
    "address": "str. Shahid Meshki nr 89 (cod poștal 115.46.399.11), (zona Fakhrabad), Baharestan, Tehran",
    "location": "Secție Consulară",
    "latitude": 35.694741,
    "longitude": 51.441252,
    "type": "Ambele tururi"
  },
  {
    "number": 308,
    "country": "Irlanda",
    "city": "Dublin 1",
    "address": "Palmerston House, Ground Floor, Denzille Lane/Fenian Street, Dublin 2, D02 WD37",
    "location": "Secție Consulară",
    "latitude": 53.341316,
    "longitude": -6.24852,
    "type": "Ambele tururi"
  },
  {
    "number": 309,
    "country": "Irlanda",
    "city": "Dublin 2",
    "address": "Palmerston House, Ground Floor, Denzille Lane/Fenian Street, Dublin 2, D02 WD37",
    "location": "Secție Consulară",
    "latitude": 53.341316,
    "longitude": -6.24852,
    "type": "Ambele tururi"
  },
  {
    "number": 310,
    "country": "Irlanda",
    "city": "Dublin 3",
    "address": "Palmerston House, Ground Floor, Denzille Lane/Fenian Street, Dublin 2, D02 WD37",
    "location": "Secție Consulară",
    "latitude": 53.341316,
    "longitude": -6.24852,
    "type": "Ambele tururi"
  },
  {
    "number": 311,
    "country": "Irlanda",
    "city": "Dublin 4",
    "address": "Palmerston House, Ground Floor, Denzille Lane/Fenian Street, Dublin 2, D02 WD37",
    "location": "Secție Consulară",
    "latitude": 53.341316,
    "longitude": -6.24852,
    "type": "Ambele tururi"
  },
  {
    "number": 312,
    "country": "Irlanda",
    "city": "Dublin 5",
    "address": "Westmanstown Sports and Conference Centre, Lucan Road,Clonsilla, Dublin 15, D15 Y2DH",
    "location": "Altele",
    "latitude": 53.379668,
    "longitude": -6.442183,
    "type": "Ambele tururi"
  },
  {
    "number": 313,
    "country": "Irlanda",
    "city": "Dublin 6",
    "address": "Westmanstown Sports and Conference Centre, Lucan Road,Clonsilla, Dublin 15, D15 Y2DH",
    "location": "Altele",
    "latitude": 53.379668,
    "longitude": -6.442183,
    "type": "Ambele tururi"
  },
  {
    "number": 314,
    "country": "Irlanda",
    "city": "Dublin 7",
    "address": "Westmanstown Sports and Conference Centre, Lucan Road,Clonsilla, Dublin 15, D15 Y2DH",
    "location": "Altele",
    "latitude": 53.379668,
    "longitude": -6.442183,
    "type": "Ambele tururi"
  },
  {
    "number": 315,
    "country": "Irlanda",
    "city": "Dublin 8",
    "address": "Westmanstown Sports and Conference Centre, Lucan Road,Clonsilla, Dublin 15, D15 Y2DH",
    "location": "Altele",
    "latitude": 53.379668,
    "longitude": -6.442183,
    "type": "Ambele tururi"
  },
  {
    "number": 316,
    "country": "Irlanda",
    "city": "Dublin 9",
    "address": "Westmanstown Sports and Conference Centre, Lucan Road,Clonsilla, Dublin 15, D15 Y2DH",
    "location": "Altele",
    "latitude": 53.379668,
    "longitude": -6.442183,
    "type": "Ambele tururi"
  },
  {
    "number": 317,
    "country": "Irlanda",
    "city": "Dublin 10",
    "address": "Westmanstown Sports and Conference Centre, Lucan Road,Clonsilla, Dublin 15, D15 Y2DH",
    "location": "Altele",
    "latitude": 53.379668,
    "longitude": -6.442183,
    "type": "Ambele tururi"
  },
  {
    "number": 318,
    "country": "Irlanda",
    "city": "Cork",
    "address": "Little Island Sports Complex, Wallingstown, Little Island, Cork, T45 F449",
    "location": "Altele",
    "latitude": 51.900334,
    "longitude": -8.368065,
    "type": "Ambele tururi"
  },
  {
    "number": 319,
    "country": "Irlanda",
    "city": "Drogheda",
    "address": "Drogheda Civic Offices, Fair Street, Moneymore, Drogheda, Co. Louth, A92 P440",
    "location": "Altele",
    "latitude": 53.7164,
    "longitude": -6.3535,
    "type": "Ambele tururi"
  },
  {
    "number": 320,
    "country": "Irlanda",
    "city": "Galway",
    "address": "Ardilaun House Hotel, Taylors Hill Road, Galway, H91 H29F",
    "location": "Altele",
    "latitude": 53.267594,
    "longitude": -9.080915,
    "type": "Ambele tururi"
  },
  {
    "number": 321,
    "country": "Irlanda",
    "city": "Kilkenny",
    "address": "Pembroke Hotel, 11 Patrick St, Garden, Kilkenny, R95 VNP4",
    "location": "Altele",
    "latitude": 52.649405,
    "longitude": -7.251317,
    "type": "Ambele tururi"
  },
  {
    "number": 322,
    "country": "Irlanda",
    "city": "Limerick",
    "address": "The Engine Building, Cecil Street, Limerick, V94 TN32",
    "location": "Altele",
    "latitude": 52.660709,
    "longitude": -8.626383,
    "type": "Ambele tururi"
  },
  {
    "number": 323,
    "country": "Irlanda",
    "city": "Waterford",
    "address": "Crystal Sport and Leisure Centre, Cork Road, Waterford City, X91 E6PX",
    "location": "Altele",
    "latitude": 52.243386,
    "longitude": -7.150445,
    "type": "Ambele tururi"
  },
  {
    "number": 324,
    "country": "Israel",
    "city": "Tel Aviv 1",
    "address": "Paz Tower, Str. Shoham, Nr. 2, Et. 8, 52510, Ramat Gan",
    "location": "Secţie Consulară",
    "latitude": 32.082287,
    "longitude": 34.803337,
    "type": "Ambele tururi"
  },
  {
    "number": 325,
    "country": "Israel",
    "city": "Tel Aviv 2",
    "address": " Shaul Hamelech Bvd, Nr. 8., 64733, Tel Aviv",
    "location": "ICR",
    "latitude": 32.075374,
    "longitude": 34.784062,
    "type": "Ambele tururi"
  },
  {
    "number": 326,
    "country": "Israel",
    "city": "Haifa",
    "address": "3 Habankim, Haifa, cod poștal 3326115",
    "location": "Consulat General",
    "latitude": 32.820123,
    "longitude": 34.997325,
    "type": "Ambele tururi"
  },
  {
    "number": 327,
    "country": "Italia",
    "city": "Roma 1",
    "address": "Via Nicolò Tartaglia, 40, cod poștal 00197, Roma",
    "location": "Ambasadă ",
    "latitude": 41.924302,
    "longitude": 12.488222,
    "type": "Ambele tururi"
  },
  {
    "number": 328,
    "country": "Italia",
    "city": "Roma 2",
    "address": "Via Nicolò Tartaglia, 40, cod poștal 00197, Roma",
    "location": "Ambasadă ",
    "latitude": 41.924295,
    "longitude": 12.488273,
    "type": "Ambele tururi"
  },
  {
    "number": 329,
    "country": "Italia",
    "city": "Roma 3",
    "address": "Piazza José de S.Martin, 1 cod poștal 00197, Roma",
    "location": "ICR ",
    "latitude": 41.916954,
    "longitude": 12.479481,
    "type": "Ambele tururi"
  },
  {
    "number": 330,
    "country": "Italia",
    "city": "Roma 4",
    "address": "Viale delle Belle Arti, 110 cod poștal 00197, Roma",
    "location": "ICR ",
    "latitude": 41.916913,
    "longitude": 12.482164,
    "type": "Ambele tururi"
  },
  {
    "number": 331,
    "country": "Italia",
    "city": "Roma 5",
    "address": "Viale Libano 38-40, cod poștal 00144, Roma",
    "location": "Consulat General ",
    "latitude": 41.822434,
    "longitude": 12.463904,
    "type": "Ambele tururi"
  },
  {
    "number": 332,
    "country": "Italia",
    "city": "Roma 6",
    "address": "Viale Libano 38-40, cod poștal 00144,Roma",
    "location": "Consulat General ",
    "latitude": 41.822434,
    "longitude": 12.463904,
    "type": "Ambele tururi"
  },
  {
    "number": 333,
    "country": "Italia",
    "city": "Roma 7",
    "address": "Viale Libano 38-40, cod poștal 00144, Roma",
    "location": "Consulat General ",
    "latitude": 41.822434,
    "longitude": 12.463904,
    "type": "Ambele tururi"
  },
  {
    "number": 334,
    "country": "Italia",
    "city": "Ostia ",
    "address": "Centro Anziani Il Sommergibile, Viale del Sommergibile, 71, cod poștal 00121 Ostia",
    "location": "Altele",
    "latitude": 41.737254,
    "longitude": 12.262272,
    "type": "Ambele tururi"
  },
  {
    "number": 335,
    "country": "Italia",
    "city": "Monterotondo",
    "address": "Quality Hotel Green Palace, via  Salaria, 207, cod poștal 00015,  Monterotondo",
    "location": "Altele",
    "latitude": 42.061795,
    "longitude": 12.589158,
    "type": "Ambele tururi"
  },
  {
    "number": 336,
    "country": "Italia",
    "city": "Guidonia",
    "address": "Biblioteca comunală, via Maurizio Morris 7, cod poștal 00012, Guidonia Montecelio",
    "location": "Altele",
    "latitude": 41.991599,
    "longitude": 12.722268,
    "type": "Ambele tururi"
  },
  {
    "number": 337,
    "country": "Italia",
    "city": "Palestrina",
    "address": "Albergo Stella, Piazza della Liberazione 3, cod poștal 00036, Palestrina",
    "location": "Altele",
    "latitude": 41.83906,
    "longitude": 12.890123,
    "type": "Ambele tururi"
  },
  {
    "number": 338,
    "country": "Italia",
    "city": "Tivoli",
    "address": "Città dello Sport di Tivoli, Via Empolitana, 00019 Tivoli RM",
    "location": "Altele",
    "latitude": 41.948583,
    "longitude": 12.832617,
    "type": "Ambele tururi"
  },
  {
    "number": 339,
    "country": "Italia",
    "city": "Rignano Flaminio",
    "address": "Centro Vaccinale di Rignano Flaminio, Via dell’Aquila, cod poștal 00068 Rignano Flaminio RM",
    "location": "Altele",
    "latitude": 42.161004,
    "longitude": 12.480887,
    "type": "Ambele tururi"
  },
  {
    "number": 340,
    "country": "Italia",
    "city": "Albano Laziale",
    "address": "Villa Altieri, Via Appia Nuova  nr. 1, cod poștal 00041, Albano Laziale",
    "location": "Altele",
    "latitude": 41.731406,
    "longitude": 12.655646,
    "type": "Ambele tururi"
  },
  {
    "number": 341,
    "country": "Italia",
    "city": "Ladispoli",
    "address": "Centro Arte e Cultura, via Settevene Palo Nord nr. 21, cod poștal 00055,  Ladispoli ",
    "location": "Altele",
    "latitude": 41.967638,
    "longitude": 12.083683,
    "type": "Ambele tururi"
  },
  {
    "number": 342,
    "country": "Italia",
    "city": "Frosinone",
    "address": "Casa della Cultura, Via giordano Bruno, cod poștal 03100,  Frosinone",
    "location": "Altele",
    "latitude": 41.644127,
    "longitude": 13.352885,
    "type": "Ambele tururi"
  },
  {
    "number": 343,
    "country": "Italia",
    "city": "Latina",
    "address": "Centro Commerciale AGORA Viale John Fitzgerald Kennedy, 04100 Latina LT",
    "location": "Altele",
    "latitude": 41.463536,
    "longitude": 12.882666,
    "type": "Ambele tururi"
  },
  {
    "number": 344,
    "country": "Italia",
    "city": "Viterbo",
    "address": "Centro sociale polivalente “Sacrario”, Via Santa Maria in Volturno 18, cod poștal 01100 Viterbo",
    "location": "Altele",
    "latitude": 42.419005,
    "longitude": 12.104052,
    "type": "Ambele tururi"
  },
  {
    "number": 345,
    "country": "Italia",
    "city": "Terni",
    "address": "Sala de consiliu Piazza San Giovanni, Paolo II nr. 1, cod poștal  05100, Terni",
    "location": "Altele",
    "latitude": 42.562464,
    "longitude": 12.646418,
    "type": "Ambele tururi"
  },
  {
    "number": 346,
    "country": "Italia",
    "city": "Perugia",
    "address": "Sala Gnoli, Via Umberto Gnoli, cod poștal 06128, Perugia",
    "location": "Altele",
    "latitude": 43.132403,
    "longitude": 12.360017,
    "type": "Ambele tururi"
  },
  {
    "number": 347,
    "country": "Italia",
    "city": "Pescara",
    "address": "Centro Polivalente Mons. Gustavo Britti, Via Rio Sparto, cod poștal 65129 Pescara",
    "location": "Altele",
    "latitude": 42.448306,
    "longitude": 14.214079,
    "type": "Ambele tururi"
  },
  {
    "number": 348,
    "country": "Italia",
    "city": "Olbia",
    "address": "Sala Corsi ASPO, via Indonesia, nr. 9, cod poștal 07026, Olbia",
    "location": "Altele",
    "latitude": 40.931536,
    "longitude": 9.513159,
    "type": "Ambele tururi"
  },
  {
    "number": 349,
    "country": "Italia",
    "city": "Cagliari",
    "address": "Primărie - Sala EXTE - Via Roma 145, cod poștal 09124, Cagliari  ",
    "location": "Altele",
    "latitude": 39.215282,
    "longitude": 9.11057,
    "type": "Ambele tururi"
  },
  {
    "number": 350,
    "country": "Italia",
    "city": "Napoli",
    "address": "Hotel Futura – Sala  AUDITORIUM 3, Via Nazionale delle Puglie 195, cod poștal 80026 Napoli",
    "location": "Altele",
    "latitude": 40.890819,
    "longitude": 14.322471,
    "type": "Ambele tururi"
  },
  {
    "number": 351,
    "country": "Malta",
    "city": "La Valletta",
    "address": "Grand Hotel Excelsior, Great Siege Road, Floriana FRN 1810",
    "location": "Altele",
    "latitude": 35.89689,
    "longitude": 14.505092,
    "type": "Ambele tururi"
  },
  {
    "number": 352,
    "country": "Italia",
    "city": "Bari 1",
    "address": "Via Bruno Zaccaro Nr.17/19 Bari, cod poștal 70126",
    "location": "Consulat General",
    "latitude": 41.09064,
    "longitude": 16.889086,
    "type": "Ambele tururi"
  },
  {
    "number": 353,
    "country": "Italia",
    "city": "Bari 2",
    "address": "Palazzo Città, Corso Vittorio Emanuele II, Nr. 84, Bari , cod poștal 70122",
    "location": "Altele",
    "latitude": 41.125796,
    "longitude": 16.867724,
    "type": "Ambele tururi"
  },
  {
    "number": 354,
    "country": "Italia",
    "city": "Campobasso",
    "address": "Terzo Spazio, ex Scuola Cep Nord, Via Eugenio Cirese snc, Campobasso, cod poștal 86100",
    "location": "Altele",
    "latitude": 41.566187,
    "longitude": 14.674508,
    "type": "Ambele tururi"
  },
  {
    "number": 355,
    "country": "Italia",
    "city": "Catanzaro",
    "address": "Istituto Comprensivo \"Casalinuovo”, Via Stretto Antico Snc, Catanzaro, cod poștal 88100",
    "location": "Altele",
    "latitude": 38.825375,
    "longitude": 16.609077,
    "type": "Ambele tururi"
  },
  {
    "number": 356,
    "country": "Italia",
    "city": "Cosenza",
    "address": "Via San Martino nr. 23, Ex Municipia SpA, Piazza San Nicola, Cosenza, cod poștal 87100",
    "location": "Altele",
    "latitude": 39.29292,
    "longitude": 16.254318,
    "type": "Ambele tururi"
  },
  {
    "number": 357,
    "country": "Italia",
    "city": "Crotone",
    "address": "Comando Polizia Locale, Via Leonardo Gallucci, Nr. 109, Crotone, cod poștal 88900",
    "location": "Altele",
    "latitude": 39.067522,
    "longitude": 17.129533,
    "type": "Ambele tururi"
  },
  {
    "number": 358,
    "country": "Italia",
    "city": "Foggia",
    "address": "Ufficio Anagrafe, Viale Candelaro Nr. 102, Foggia, cod poștal 71121",
    "location": "Altele",
    "latitude": 41.467979,
    "longitude": 15.537229,
    "type": "Ambele tururi"
  },
  {
    "number": 359,
    "country": "Italia",
    "city": "Ginosa",
    "address": "Istituto Comprensivo G. Deledda - S. G. Bosco, Via Quarto, Nr. 8, Ginosa, cod poștal 74013",
    "location": "Altele",
    "latitude": 40.576485,
    "longitude": 16.755552,
    "type": "Ambele tururi"
  },
  {
    "number": 360,
    "country": "Italia",
    "city": "Isernia",
    "address": "Auditorium \"10 settembre 1943\", Corso Risorgimento Nr. 221, Isernia, cod poștal 86170",
    "location": "Altele",
    "latitude": 41.597035,
    "longitude": 14.241717,
    "type": "Ambele tururi"
  },
  {
    "number": 361,
    "country": "Italia",
    "city": "Lamezia Terme",
    "address": "Complesso Monumentale del San Domenico (Museo Archeologico Lamentino), Piazzetta San Domenico snc, Lamezia Terme, cod poștal 88046",
    "location": "Altele",
    "latitude": 38.974667,
    "longitude": 16.318946,
    "type": "Ambele tururi"
  },
  {
    "number": 362,
    "country": "Italia",
    "city": "Lecce",
    "address": "Centro Sociale Comunale, Via Matera Nr. 2, Lecce, cod poștal 73100",
    "location": "Altele",
    "latitude": 40.356573,
    "longitude": 18.20045,
    "type": "Ambele tururi"
  },
  {
    "number": 363,
    "country": "Italia",
    "city": "Matera",
    "address": "Complesso Commerciale Il Circo, Sala Consiliare \"Pier Paolo Pasolini\", Via G. Sallustio Crispo snc,  Matera, cod poștal 75100",
    "location": "Altele",
    "latitude": 40.681201,
    "longitude": 16.577613,
    "type": "Ambele tururi"
  },
  {
    "number": 364,
    "country": "Italia",
    "city": "Potenza",
    "address": "Centro Provinciale Istruzione, Via Pietro Lacava Nr. 2, Potenza, cod poștal 85100",
    "location": "Altele",
    "latitude": 40.637719,
    "longitude": 15.814006,
    "type": "Ambele tururi"
  },
  {
    "number": 365,
    "country": "Italia",
    "city": "Reggio Calabria",
    "address": "Sala G. Versace - Palazzo CE.DIR, Via Sant'Anna II Tronco, Reggio Calabria, cod poștal 89128",
    "location": "Altele",
    "latitude": 38.103465,
    "longitude": 15.65401,
    "type": "Ambele tururi"
  },
  {
    "number": 366,
    "country": "Italia",
    "city": "Taranto",
    "address": "Istituto Comprensivo \"Europa-Alighieri\", Scuola dell'Infanzia e primaria - Plesso Basile, Via Solito Nr. 50 angolo Via Plinio Nr. 58, Taranto, cod poștal 74123",
    "location": "Altele",
    "latitude": 40.462464,
    "longitude": 17.261701,
    "type": "Ambele tururi"
  },
  {
    "number": 367,
    "country": "Italia",
    "city": "Trani",
    "address": "Ufficio Presidenza Provincia di B.A.T., ex Lum, SP 130, Km.1.500, Trani, cod poștal 76125",
    "location": "Altele",
    "latitude": 41.269502,
    "longitude": 16.386959,
    "type": "Ambele tururi"
  },
  {
    "number": 368,
    "country": "Italia",
    "city": "Vibo Valentia",
    "address": "Palazzo Valentianum, Piazza San Leoluca SNC, Vibo Valentia , cod poștal 89900",
    "location": "Altele",
    "latitude": 38.677211,
    "longitude": 16.106352,
    "type": "Ambele tururi"
  },
  {
    "number": 369,
    "country": "Italia",
    "city": "Bologna 1",
    "address": "Via Guelfa, nr.9B, cod poștal 40138, Bologna",
    "location": "Consulat General",
    "latitude": 44.491422,
    "longitude": 11.387317,
    "type": "Ambele tururi"
  },
  {
    "number": 370,
    "country": "Italia",
    "city": "Bologna 2",
    "address": "Via Guelfa, nr.9D, cod poștal 40138, Bologna",
    "location": "Consulat General",
    "latitude": 44.491445,
    "longitude": 11.387283,
    "type": "Ambele tururi"
  },
  {
    "number": 371,
    "country": "Italia",
    "city": "Bologna 3 (Borgo Panigale)",
    "address": "Via Battindarno, nr.123, sala Falcone Borsellino, cod poștal 40133, Borgo Panigale",
    "location": "Altele",
    "latitude": 44.502291,
    "longitude": 11.296282,
    "type": "Ambele tururi"
  },
  {
    "number": 372,
    "country": "Italia",
    "city": "Ancona",
    "address": "Via Battisti, nr. 11/c, Sala Civica, cod poștal 60123, Ancona",
    "location": "Altele",
    "latitude": 43.61725,
    "longitude": 13.525294,
    "type": "Ambele tururi"
  },
  {
    "number": 373,
    "country": "Italia",
    "city": "Arezzo",
    "address": "Via Pier Luigi da Palestrina, 19, cod poștal 52100, Arezzo",
    "location": "Altele",
    "latitude": 43.471302,
    "longitude": 11.887242,
    "type": "Ambele tururi"
  },
  {
    "number": 374,
    "country": "Italia",
    "city": "Ascoli Piceno",
    "address": "Piceno Via Emidio Luzi, nr.18, cod poștal 63100, Ascoli Piceno",
    "location": "Altele",
    "latitude": 42.858372,
    "longitude": 13.642228,
    "type": "Ambele tururi"
  },
  {
    "number": 375,
    "country": "Italia",
    "city": "Budrio",
    "address": "Via Bianchi, nr. 31, sala Centro Sociale LaMagnolia, cod poștal 40054, Budrio",
    "location": "Altele",
    "latitude": 44.54015,
    "longitude": 11.536691,
    "type": "Ambele tururi"
  },
  {
    "number": 376,
    "country": "Italia",
    "city": "Cesena",
    "address": "Piazza Anna Magnani n.143, sala del Quartiere Oltre Savio,  cod poștal 47522, Cesena",
    "location": "Altele",
    "latitude": 44.135927,
    "longitude": 12.227683,
    "type": "Ambele tururi"
  },
  {
    "number": 377,
    "country": "Italia",
    "city": "Ferrara",
    "address": "Viale Costituzione, nr.2/4, cod poștal 44122, Ferrara",
    "location": "Altele",
    "latitude": 44.84418,
    "longitude": 11.605889,
    "type": "Ambele tururi"
  },
  {
    "number": 378,
    "country": "Italia",
    "city": "Firenze",
    "address": "Piazza Madonna della Neve, nr. 6, sala Pasquini, cod poștal 50122, Firenze",
    "location": "Altele",
    "latitude": 43.769315,
    "longitude": 11.268972,
    "type": "Ambele tururi"
  },