[
  {
    "number": "1",
    "country": "Africa de Sud",
    "city": "Pretoria",
    "address": "877 Justice Mahomed Street. Pretoria. 0181",
    "location": "Ambasadă",
    "latitude": -25.7670595,
    "longitude": 28.2345874
  },
  {
    "number": "2",
    "country": "Africa de Sud",
    "city": "Cape Town",
    "address": "24 Highwick Drive 7708 Kenilworth. Cape Town",
    "location": "Consulat General",
    "latitude": -33.99151,
    "longitude": 18.46137
  },
  {
    "number": "3",
    "country": "Republica Albania",
    "city": "Tirana",
    "address": "Strada E Elbasanit nr. 303. Sauk,\u00A0 Tirana",
    "location": "Ambasadă",
    "latitude": 41.3021046,
    "longitude": 19.8395354
  },
  {
    "number": "4",
    "country": "Algeria",
    "city": "Alger",
    "address": "24, rue Abri Arezki, Hydra, Alger, cod poștal 16035",
    "location": "Ambasadă",
    "latitude": 36.74565219999999,
    "longitude": 3.0382712
  },
  {
    "number": "5",
    "country": "Angola",
    "city": "Luanda",
    "address": "Rua Ramalho Ortigăo, nr. 30, Bairro Alvalade, Luanda",
    "location": "Ambasadă",
    "latitude": -8.828370999999999,
    "longitude": 13.2362492
  },
  {
    "number": "6",
    "country": "Regatul Arabiei Saudite",
    "city": "Riyadh",
    "address": "2747 Amin Ar Rihany St.. King Fahd District. Unit no. 1. Building no. 2747. Riyadh.\u00A0 -Additional no. 7442",
    "location": "Ambasadă",
    "latitude": 24.7337732,
    "longitude": 46.674437
  },
  {
    "number": "7",
    "country": "Argentina",
    "city": "Buenos Aires",
    "address": "Calle Arroyo, nr. 962-970, CP: 1007AAD, Orașul Autonom Buenos Aires",
    "location": "Ambasadă",
    "latitude": -34.5917058,
    "longitude": -58.3809364
  },
  {
    "number": "8",
    "country": "Armenia",
    "city": "Erevan",
    "address": "Str. Barbusse 15, Erevan, 0028, cartier Arabkir",
    "location": "Ambasadă",
    "latitude": 40.1972419,
    "longitude": 44.4866633
  },
  {
    "number": "9",
    "country": "Australia",
    "city": "Canberra",
    "address": "4 Dalman Crescent, O\u0027Malley, ACT, 2606",
    "location": "Ambasadă",
    "latitude": -35.3502862,
    "longitude": 149.1087949
  },
  {
    "number": "10",
    "country": "Australia",
    "city": "Melbourne",
    "address": "Suite 10.01A Level 10. 5 Queens Road Melbourne VIC 3004\u00A0",
    "location": "Consulat",
    "latitude": -37.8370066,
    "longitude": 144.9741061
  },
  {
    "number": "11",
    "country": "Australia",
    "city": "Adelaide",
    "address": "9 Gilbert Street. Ovingham SA 5082",
    "location": "Altele",
    "latitude": -34.9012045,
    "longitude": 138.5836706
  },
  {
    "number": "12",
    "country": "Australia",
    "city": "Perth",
    "address": "8 Balga Ave. Balga WA 6061",
    "location": "Altele",
    "latitude": -31.85624919999999,
    "longitude": 115.838972
  },
  {
    "number": "13",
    "country": "Australia",
    "city": "Sydney",
    "address": "Suite 4. G-F/83 York Street. CBD. Sydney. NSW. 2000",
    "location": "Consulat general",
    "latitude": -33.8693315,
    "longitude": 151.205878
  },
  {
    "number": "14",
    "country": "Australia",
    "city": "Surfers Paradise",
    "address": "1-2/66 Appel Street, Surfers Paradise, Gold Coast, QLD, 4217",
    "location": "Altele",
    "latitude": -28.0043401,
    "longitude": 153.4281178
  },
  {
    "number": "15",
    "country": "Noua Zeelandă",
    "city": "Auckland",
    "address": "56 Wakefield Street. Auckland CBD. Auckland 1010",
    "location": "Altele",
    "latitude": -36.8542289,
    "longitude": 174.7654906
  },
  {
    "number": "16",
    "country": "Austria",
    "city": "Viena 1",
    "address": "Prinz Eugen Strasse 60, 1040 Viena",
    "location": "Ambasadă",
    "latitude": 48.19077009999999,
    "longitude": 16.3796102
  },
  {
    "number": "17",
    "country": "Austria",
    "city": "Viena 2",
    "address": "Prinz Eugen Strasse 60, 1040 Viena",
    "location": "Ambasadă",
    "latitude": 48.19077009999999,
    "longitude": 16.3796102
  },
  {
    "number": "18",
    "country": "Austria",
    "city": "Viena 3",
    "address": "Theresianumgasse 25, 1040 Viena",
    "location": "Consulat",
    "latitude": 48.1915531,
    "longitude": 16.3738037
  },
  {
    "number": "19",
    "country": "Austria",
    "city": "Viena 4",
    "address": "Argentinierstrasse 39, 1040 Viena",
    "location": "ICR",
    "latitude": 48.1918399,
    "longitude": 16.3749733
  },
  {
    "number": "20",
    "country": "Austria",
    "city": "Viena 5",
    "address": "Argentinierstrasse 39, 1040 Viena",
    "location": "ICR",
    "latitude": 48.1918399,
    "longitude": 16.3749733
  },
  {
    "number": "21",
    "country": "Austria",
    "city": "Viena 6",
    "address": "Gasometer Spielraum - Guglgasse 8/Gasometer B, 1100, Viena",
    "location": "Altele",
    "latitude": 48.1850303,
    "longitude": 16.4201441
  },
  {
    "number": "22",
    "country": "Austria",
    "city": "Graz 1",
    "address": "Lendhafen. Lendkai 17 (Mariahilferplatz). 8020 Graz",
    "location": "Altele",
    "latitude": 47.0724948,
    "longitude": 15.4338006
  },
  {
    "number": "23",
    "country": "Austria",
    "city": "Graz 2",
    "address": "Lendhafen. Lendkai 17 (Mariahilferplatz). 8020 Graz",
    "location": "Altele",
    "latitude": 47.0724948,
    "longitude": 15.4338006
  },
  {
    "number": "24",
    "country": "Austria",
    "city": "Eisenstadt",
    "address": "Kongress Zentrum Eisenstadt Franz Schubert-Platz 6, 7000 Eisenstadt",
    "location": "Altele",
    "latitude": 47.84736349999999,
    "longitude": 16.5274724
  },
  {
    "number": "25",
    "country": "Austria",
    "city": "Sankt Pollen",
    "address": "Haus 1A, Leopoldsaal, Landhausplatz 1. 3100 Sankt Polten",
    "location": "Altele",
    "latitude": 48.2008186,
    "longitude": 15.6335326
  },
  {
    "number": "26",
    "country": "Austria",
    "city": "Salzburg 1",
    "address": "Rudolfskai 50. 5020 Salzburg",
    "location": "Consulat General",
    "latitude": 47.79798100000001,
    "longitude": 13.0521869
  },
  {
    "number": "27",
    "country": "Austria",
    "city": "Salzburg 2",
    "address": "Rudolfskai 50. 5020 Salzburg",
    "location": "Consulat General",
    "latitude": 47.79798100000001,
    "longitude": 13.0521869
  },
  {
    "number": "28",
    "country": "Austria",
    "city": "Linz 1",
    "address": "Bischofliches Priesterseminar der Didzese Linz, HarrachstraBe 7, 4020 Linz",
    "location": "Altele",
    "latitude": 48.3028928,
    "longitude": 14.2927959
  },
  {
    "number": "29",
    "country": "Austria",
    "city": "Linz 2",
    "address": "Bischofliches Priesterseminar der Didzese Linz, HarrachstraBe 7, 4020 Linz",
    "location": "Altele",
    "latitude": 48.3028928,
    "longitude": 14.2927959
  },
  {
    "number": "30",
    "country": "Austria",
    "city": "Innsbruck",
    "address": "Hotel Congress, Rennweg 12a, 6020 Innsbruck",
    "location": "Altele",
    "latitude": 47.27461049999999,
    "longitude": 11.3975828
  },
  {
    "number": "31",
    "country": "Austria",
    "city": "Klagenfurt",
    "address": "Progress-Zentrum, Dr.-Richard-Canaval-Gasse 110, 9020 Klagenfurt",
    "location": "Altele",
    "latitude": 46.6298988,
    "longitude": 14.3325536
  },
  {
    "number": "32",
    "country": "Austria",
    "city": "Bregenz",
    "address": "Grand Hotel, Platz der Wiener Symphoniker 2, 6900 Bregenz",
    "location": "Altele",
    "latitude": 47.5034253,
    "longitude": 9.738457799999999
  },
  {
    "number": "33",
    "country": "Azerbaidjan",
    "city": "Baku",
    "address": "Bd Akad. Hassan Aliyev, nr. 125 A (Narimanov), cod AZI 110 Baku",
    "location": "Ambasadă",
    "latitude": 40.4091235,
    "longitude": 49.8647652
  },
  {
    "number": "34",
    "country": "Republica Belarus",
    "city": "Minsk",
    "address": "12. Kaliningradskii Pereulok. 220012, Minsk",
    "location": "Ambasadă",
    "latitude": 53.90060110000001,
    "longitude": 27.558972
  },
  {
    "number": "35",
    "country": "Belgia",
    "city": "Bruxelles 1",
    "address": "Rue Gabrielle 105. 1180 Bruxelles",
    "location": "Ambasadă",
    "latitude": 50.81255269999999,
    "longitude": 4.3598196
  },
  {
    "number": "36",
    "country": "Belgia",
    "city": "Bruxelles 2",
    "address": "Boulevard du Regent 47-48. 1000, Bruxelles",
    "location": "Secție consulară",
    "latitude": 50.8473906,
    "longitude": 4.3688033
  },
  {
    "number": "37",
    "country": "Belgia",
    "city": "Bruxelles 3",
    "address": "Avenue de Cortenbergh 107, 1000 Bruxelles",
    "location": "Reprezentanță Permanentă",
    "latitude": 50.8452066,
    "longitude": 4.3909024
  },
  {
    "number": "38",
    "country": "Belgia",
    "city": "Bruxelles 4",
    "address": "Rue Gabrielle 107. 1180 Bruxelles",
    "location": "ICR",
    "latitude": 50.8122772,
    "longitude": 4.3599413
  },
  {
    "number": "39",
    "country": "Belgia",
    "city": "Bruxelles 5",
    "address": "Blue Point. 80 Bd A. Reyers Ln. 1030, Schaerbeeck (studio 201A/B)",
    "location": "Altele",
    "latitude": 50.8510991,
    "longitude": 4.401923099999999
  },
  {
    "number": "40",
    "country": "Belgia",
    "city": "Bruxelles 6",
    "address": "Blue Point. 80 Bd A. Reyers Ln. 1030 Schaerbeeck, (studio 201A/B)",
    "location": "Altele",
    "latitude": 50.85115329999999,
    "longitude": 4.4024381
  },
  {
    "number": "41",
    "country": "Belgia",
    "city": "Bruxelles 7",
    "address": "Autoworld Brussels, Parc du Cinquantenaire 11, Jubelpark 1000 Bruxelles",
    "location": "Altele",
    "latitude": 50.8393417,
    "longitude": 4.3934238
  },
  {
    "number": "42",
    "country": "Belgia",
    "city": "Bruxelles 8",
    "address": "Autoworld Brussels, Parc du Cinquantenaire 11, Jubelpark 1000 Bruxelles",
    "location": "Altele",
    "latitude": 50.8393417,
    "longitude": 4.3934238
  },
  {
    "number": "43",
    "country": "Belgia",
    "city": "Bruxelles 9",
    "address": "Autoworld Brussels, Parc du Cinquantenaire 11, Jubelpark 1000 Bruxelles",
    "location": "Altele",
    "latitude": 50.83945010000001,
    "longitude": 4.3939388
  },
  {
    "number": "44",
    "country": "Belgia",
    "city": "Bruxelles 10",
    "address": "Avenue Jean-Joseph Crocq nr. 10, 1090 Jette",
    "location": "Altele",
    "latitude": 50.8855924,
    "longitude": 4.3291775
  },
  {
    "number": "45",
    "country": "Belgia",
    "city": "Liege",
    "address": "Palais des Congres de Liege, Esplanade de l\u0027Europe 2/B-4020",
    "location": "Altele",
    "latitude": 50.6308691,
    "longitude": 5.574188400000001
  },
  {
    "number": "46",
    "country": "Belgia",
    "city": "Antwerpen 1",
    "address": "Blue Point Antwerpen, Filip Williostraat 9, 2600 Berchem",
    "location": "Altele",
    "latitude": 51.1869789,
    "longitude": 4.4357729
  },
  {
    "number": "47",
    "country": "Belgia",
    "city": "Antwerpen 2",
    "address": "Blue Point Antwerpen, Filip Williostraat 9, 2600 Berchem",
    "location": "Altele",
    "latitude": 51.1869789,
    "longitude": 4.4357729
  },
  {
    "number": "48",
    "country": "Belgia",
    "city": "Mons",
    "address": "Mons, Business Center Mons, Boulevard Andre Delvaux 1",
    "location": "Altele",
    "latitude": 50.4556999,
    "longitude": 3.9280844
  },
  {
    "number": "49",
    "country": "Belgia",
    "city": "Charleroi",
    "address": "Dome, 2 Rue des Olympiades, 6000 Charleroi",
    "location": "Altele",
    "latitude": 50.4238682,
    "longitude": 4.4462704
  },
  {
    "number": "50",
    "country": "Belgia",
    "city": "Brugge",
    "address": "Xaverianenstraat 3, 8200 Brugge",
    "location": "Altele",
    "latitude": 51.18639869999999,
    "longitude": 3.2058769
  },
  {
    "number": "51",
    "country": "Belgia",
    "city": "Gent",
    "address": "Flanders Expo, Maaltekouter 1, 9051 Gent",
    "location": "Altele",
    "latitude": 51.0260197,
    "longitude": 3.6911736
  },
  {
    "number": "52",
    "country": "Belgia",
    "city": "Roeselare",
    "address": "Meensesteenweg 412, 8800 Roeselare",
    "location": "Altele",
    "latitude": 50.9214956,
    "longitude": 3.1168798
  },
  {
    "number": "53",
    "country": "Belgia",
    "city": "Geel",
    "address": "Stelen 77. 2440 Geel",
    "location": "Altele",
    "latitude": 51.1260138,
    "longitude": 4.9708827
  },
  {
    "number": "54",
    "country": "Belgia",
    "city": "Hasselt",
    "address": "Het Volkstehuis, Kempische Kaai, 11, 3500, Hasselt",
    "location": "Altele",
    "latitude": 50.93515070000001,
    "longitude": 5.338346599999999
  },
  {
    "number": "55",
    "country": "Belgia",
    "city": "Namur",
    "address": "La Bourse, Place d\u0027Armes 1, 5000 Namur",
    "location": "Altele",
    "latitude": 50.46352199999999,
    "longitude": 4.8673671
  },
  {
    "number": "56",
    "country": "Belgia",
    "city": "Turnhout",
    "address": "Campus Blairon 200, 2300 Turnhout",
    "location": "Altele",
    "latitude": 51.3160035,
    "longitude": 4.9299206
  },
  {
    "number": "57",
    "country": "Belgia",
    "city": "Arion",
    "address": "Rue de Musee nr 10. 6700 Arion",
    "location": "Altele",
    "latitude": 49.6852017,
    "longitude": 5.8116343
  },
  {
    "number": "58",
    "country": "Belgia",
    "city": "Sint-Niklaas",
    "address": "Paterskerk. Truweelstraat 210. 9100 Sint-Niklaas",
    "location": "Altele",
    "latitude": 51.1720877,
    "longitude": 4.150263799999999
  },
  {
    "number": "59",
    "country": "Bosnia și Herțegovina",
    "city": "Sarajevo",
    "address": "Cobanija 28, 71000, Sarajevo",
    "location": "Ambasadă",
    "latitude": 43.8536656,
    "longitude": 18.4213988
  },
  {
    "number": "60",
    "country": "Brazilia",
    "city": "Brasilia",
    "address": "Setor de Embaixadas Norte - Lote 06 - Sen 801, SEN - Asa Norte, DE, 70800-917",
    "location": "Ambasadă",
    "latitude": -15.7869405,
    "longitude": -47.86654059999999
  },
  {
    "number": "61",
    "country": "Brazilia",
    "city": "Ipora do Oeste",
    "address": "La Rua Sao Paulo 23. Bairro Centro. 89899000, Santa Catarina",
    "location": "Altele",
    "latitude": -27.00118579999999,
    "longitude": -48.6298047
  },
  {
    "number": "62",
    "country": "Brazilia",
    "city": "Rio de Janeiro",
    "address": "Str. Cosme Velho, nr. 526, 22241090, Rio de Janeiro, Brazilia",
    "location": "Consulat General",
    "latitude": -22.9399525,
    "longitude": -43.1978683
  },
  {
    "number": "63",
    "country": "Brazilia",
    "city": "Sao Paulo",
    "address": "Str. Sao Carlos do Pinhal, nr. 200, Bela Vista, 01333-00, Sao Paulo",
    "location": "Altele",
    "latitude": -23.5650895,
    "longitude": -46.64964990000001
  },
  {
    "number": "64",
    "country": "Bulgaria",
    "city": "Sofia",
    "address": "Bdul. Mihai Eminescu 4. Sofia. 1111",
    "location": "Ambasadă",
    "latitude": 42.6851989,
    "longitude": 23.3519223
  },
  {
    "number": "65",
    "country": "Canada",
    "city": "Ottawa",
    "address": "655 Rideau Street. Ottawa. ON. KIN 6A3",
    "location": "Ambasadă",
    "latitude": 45.4339592,
    "longitude": -75.67390189999999
  },
  {
    "number": "66",
    "country": "Canada",
    "city": "Calgary",
    "address": "17 Millrise Dr. SW. Calgary. AB. T2Y 0K7",
    "location": "Altele",
    "latitude": 50.91644219999999,
    "longitude": -114.0729206
  },
  {
    "number": "67",
    "country": "Canada",
    "city": "Quebec",
    "address": "90 boul, des Etudiants. Quebec City. QC. G2A 1N5",
    "location": "Altele",
    "latitude": 46.8558649,
    "longitude": -71.3614369
  },
  {
    "number": "68",
    "country": "Canada",
    "city": "Dieppe",
    "address": "505 Melanson Rd.. Dieppe. NB. E1A 0K2",
    "location": "Altele",
    "latitude": 46.0681395,
    "longitude": -64.7068618
  },
  {
    "number": "69",
    "country": "Canada",
    "city": "Toronto",
    "address": "789 Don Mills Rd., North York, provincia Ontario, cod poștal M3C 1T5",
    "location": "Consulat General",
    "latitude": 43.71364,
    "longitude": -79.33477999999999
  },
  {
    "number": "70",
    "country": "Canada",
    "city": "Kitchener",
    "address": "2188 Shirley Dr., Kitchener, provincia Ontario, cod poștal N2B 0A6",
    "location": "Altele",
    "latitude": 43.47669500000001,
    "longitude": -80.43630949999999
  },
  {
    "number": "71",
    "country": "Canada",
    "city": "Windsor",
    "address": "1960 Tecumseh Rd. E., Windsor, provincia Ontario, cod poștal N8W 1E1",
    "location": "Altele",
    "latitude": 42.3018232,
    "longitude": -82.9986603
  },
  {
    "number": "72",
    "country": "Canada",
    "city": "Winnipeg",
    "address": "103 Furby St., Winnipeg, provincia Manitoba, cod poștal R3C 2A4",
    "location": "Altele",
    "latitude": 49.8819963,
    "longitude": -97.15786259999999
  },
  {
    "number": "73",
    "country": "Canada",
    "city": "Montreal 1",
    "address": "1010. Sherbrooke Quest. #610. Montreal, cod poștal QC H3A 2R7",
    "location": "Consulat General",
    "latitude": 45.5022768,
    "longitude": -73.5758603
  },
  {
    "number": "74",
    "country": "Canada",
    "city": "Montreal 2",
    "address": "1010, Sherbrooke Ouest, Sala de conferințe etaj 15, Montreal,\u00A0 QC H3 A 2R7",
    "location": "Altele",
    "latitude": 45.5021783,
    "longitude": -73.5756178
  },
  {
    "number": "75",
    "country": "Canada",
    "city": "Vancouver",
    "address": "855-555 Burrard Street. Vancouver. BC. V7N 1M8",
    "location": "Consulat General",
    "latitude": 49.2863891,
    "longitude": -123.1190684
  },
  {
    "number": "76",
    "country": "Canada",
    "city": "Edmonton",
    "address": "9005 - 132 Avenue NW. Edmonton AB. T5E 0Y1",
    "location": "Altele",
    "latitude": 53.5917512,
    "longitude": -113.4801381
  },
  {
    "number": "77",
    "country": "Republica Cehă",
    "city": "Praga 1",
    "address": "Strada Nerudova 5. Mala Strana. Praga 1. 11800",
    "location": "Ambasadă",
    "latitude": 50.0885214,
    "longitude": 14.3994386
  },
  {
    "number": "78",
    "country": "Republica Cehă",
    "city": "Praga 2",
    "address": "Strada Nerudova 5. Mala Strana. Praga 1. 11800",
    "location": "Ambasadă",
    "latitude": 50.0885214,
    "longitude": 14.3994386
  },
  {
    "number": "79",
    "country": "Chile",
    "city": "Santiago",
    "address": "Benjamin 2955, Las Condes, cod poștal 7550032",
    "location": "Ambasadă",
    "latitude": -33.4128637,
    "longitude": -70.60093049999999
  },
  {
    "number": "81",
    "country": "Republica Populară Chineză",
    "city": "Hong Kong",
    "address": "03 AUnit. 21 Floor. 148 Electric Road. North Point. Hong Kong",
    "location": "Consulat General",
    "latitude": 22.286458,
    "longitude": 114.191767
  },
  {
    "number": "82",
    "country": "Republica Populară Chineză",
    "city": "Shanghai",
    "address": "502 Room, Honi International Plaza, 199 Chengdu North Road, Jing An District, Shanghai, 200041, P. R. China",
    "location": "Consulat General",
    "latitude": 31.2235199,
    "longitude": 121.45591
  },
  {
    "number": "83",
    "country": "Republica Cipru",
    "city": "Nicosia 1",
    "address": "Strada Piraeos, nr. 27, cartier Strovolos, 2023, Nicosia",
    "location": "Ambasadă",
    "latitude": 35.1454461,
    "longitude": 33.3525342
  },
  {
    "number": "84",
    "country": "Republica Cipru",
    "city": "Nicosia 2",
    "address": "Lemessou Avenue nr. 128-130, parter, 2015, Strovolos, Nicosia",
    "location": "Secție Consulară",
    "latitude": 35.1489387,
    "longitude": 33.3742886
  },
  {
    "number": "85",
    "country": "Republica Cipru",
    "city": "Larnaca",
    "address": "Hectoros, 17, 6013, Larnaca",
    "location": "Altele",
    "latitude": 34.9270435,
    "longitude": 33.62946670000001
  },
  {
    "number": "86",
    "country": "Republica Cipru",
    "city": "Limassol",
    "address": "28 October Ave 237, Limassol 3035, Cipru",
    "location": "Altele -\u00A0Clădirea Lophitis Business Center",
    "latitude": 34.680165,
    "longitude": 33.0531527
  },
  {
    "number": "87",
    "country": "Republica Cipru",
    "city": "Pafos",
    "address": "Evagora Pallikaridi, Paphos 8010, Cipru",
    "location": "Altele -\u00A0Teatrul Attikon",
    "latitude": 34.7784847,
    "longitude": 32.4243114
  },
  {
    "number": "88",
    "country": "Republica Cipru",
    "city": "Paralimni",
    "address": "Strada Ayiou Georgiou, nr. 14. cod p.5280, Paralimni",
    "location": "Altele",
    "latitude": 35.0396588,
    "longitude": 33.9832784
  },
  {
    "number": "89",
    "country": "Republica Cipru",
    "city": "Poli Crysochous",
    "address": "Strada Asinoi, nr. 15, cod poștal 8820, Poli Crysochous",
    "location": "Altele",
    "latitude": 35.0347985,
    "longitude": 32.424167
  },
  {
    "number": "90",
    "country": "R. Columbia",
    "city": "Bogota",
    "address": "Carrera 7 No. 92A-58. Chico. Bogota",
    "location": "Ambasadă",
    "latitude": 4.6723244,
    "longitude": -74.04309189999999
  },
  {
    "number": "91",
    "country": "Republica Coreea",
    "city": "Seoul",
    "address": "50 Jangmun-ro, Yongsan-gu, Seoul 04393",
    "location": "Ambasadă",
    "latitude": 37.5269566,
    "longitude": 126.9953301
  },
  {
    "number": "92",
    "country": "Republica Croația",
    "city": "Zagreb",
    "address": "Mlinarska cesta 43. 10.000",
    "location": "Ambasadă",
    "latitude": 45.8263837,
    "longitude": 15.9773684
  },
  {
    "number": "93",
    "country": "Cuba",
    "city": "Havana",
    "address": "Ave. 5ta A. no. 4407. e/44 y 46. Miramar. Playa, La Habana",
    "location": "Ambasadă",
    "latitude": 23.1137523,
    "longitude": -82.4307764
  },
  {
    "number": "94",
    "country": "Danemarca",
    "city": "Copenhaga 1",
    "address": "Bella Center, Martha Christensens Vej 18, 2300 Copenhagen S",
    "location": "Altele",
    "latitude": 55.63863869999999,
    "longitude": 12.5773517
  },
  {
    "number": "95",
    "country": "Danemarca",
    "city": "Copenhaga 2",
    "address": "Bella Center, Martha Christensens Vej 18, 2300 Copenhagen S",
    "location": "Altele",
    "latitude": 55.6380111,
    "longitude": 12.5788393
  },
  {
    "number": "96",
    "country": "Danemarca",
    "city": "Taastrup",
    "address": "3F Hoje-Taastrup. Pile Alle 18-20. 2630 Taastrup",
    "location": "Altele",
    "latitude": 55.6473597,
    "longitude": 12.2958695
  },
  {
    "number": "97",
    "country": "Danemarca",
    "city": "Hillerod",
    "address": "3F Frederiksborg, Milnersvej 4ID, 3400 Hillerod",
    "location": "Altele",
    "latitude": 55.92039090000001,
    "longitude": 12.2952632
  },
  {
    "number": "98",
    "country": "Danemarca",
    "city": "Ringsted",
    "address": "3F Midi \u0026 Ostsjadland. Vibevej 12. 4100 Ringsted",
    "location": "Altele",
    "latitude": 55.4418978,
    "longitude": 11.8017478
  },
  {
    "number": "99",
    "country": "Danemarca",
    "city": "Odense",
    "address": "3F Odense GOPS. Skibhusvej 52. B. 2.Sal. 5100 Odense C",
    "location": "Altele",
    "latitude": 55.4046619,
    "longitude": 10.3925436
  },
  {
    "number": "100",
    "country": "Danemarca",
    "city": "Aabenraa",
    "address": "Folkehjem, Haderslewej 7, 6200 Aabenraa",
    "location": "Altele",
    "latitude": 55.05040469999999,
    "longitude": 9.4210318
  },
  {
    "number": "101",
    "country": "Danemarca",
    "city": "Esbjerg",
    "address": "3F Esbjerg Transport, Nyhavnsgade 25, 6700, Esbjerg",
    "location": "Altele",
    "latitude": 55.4729482,
    "longitude": 8.432934999999999
  },
  {
    "number": "102",
    "country": "Danemarca",
    "city": "Vests",
    "address": "3F Veste. Sjadlandsgade 30. 7100, Veste",
    "location": "Altele",
    "latitude": 55.703996,
    "longitude": 9.5440697
  },
  {
    "number": "103",
    "country": "Danemarca",
    "city": "Ringkobing",
    "address": "3F Ringkobing-Skjem. Byskellet 33. 6950 Ringkobing",
    "location": "Altele",
    "latitude": 56.0895236,
    "longitude": 8.258907199999999
  },
  {
    "number": "104",
    "country": "Danemarca",
    "city": "Aarhus",
    "address": "3F Aarhus Rymarken, Rymarken 4, 8210 Aarhus",
    "location": "Altele",
    "latitude": 56.16796569999999,
    "longitude": 10.1528887
  },
  {
    "number": "105",
    "country": "Danemarca",
    "city": "Skive",
    "address": "3F Skive-egnen. Jzegervej 12. 7800 Skive",
    "location": "Altele",
    "latitude": 56.55160419999999,
    "longitude": 9.0245143
  },
  {
    "number": "106",
    "country": "Danemarca",
    "city": "Aalborg",
    "address": "3F Aalborg. Hadsundvej 184. 9000 Aalborg",
    "location": "Altele",
    "latitude": 57.02462569999999,
    "longitude": 9.9600837
  },
  {
    "number": "107",
    "country": "Danemarca",
    "city": "Heming",
    "address": "3F Midtjylland. Birk Centerpark 4. 7400 Heming",
    "location": "Altele",
    "latitude": 56.13289219999999,
    "longitude": 9.0213904
  },
  {
    "number": "108",
    "country": "Egipt",
    "city": "Cairo",
    "address": "6 Al Kamel Mohamed St, Zamalek, Cairo, cod postal 4270122",
    "location": "Ambasadă",
    "latitude": 30.0588842,
    "longitude": 31.2190381
  },
  {
    "number": "109",
    "country": "Elveția",
    "city": "Geneva",
    "address": "Rue Vermont 37-39, 1202 Geneva",
    "location": "Altele",
    "latitude": 46.2188573,
    "longitude": 6.137191
  },
  {
    "number": "110",
    "country": "Elveția",
    "city": "Cologny",
    "address": "Chemin de la Perriere 6, 1223 Cologny",
    "location": "Misiune Permanentă",
    "latitude": 46.22706399999999,
    "longitude": 6.1863842
  },
  {
    "number": "111",
    "country": "Elveția",
    "city": "Bema",
    "address": "Kastellweg 7, 3004 Bern",
    "location": "Altele -\u00A0Parohia ortodoxă română Sf. M. Mc. Gheorghe, ",
    "latitude": 46.9740608,
    "longitude": 7.4509194
  },
  {
    "number": "112",
    "country": "Elveția",
    "city": "Lausanne",
    "address": "Maison de la femme, Avenue Eglantine 6, 1006 Lausanne",
    "location": "Altele",
    "latitude": 46.51601480000001,
    "longitude": 6.6406816
  },
  {
    "number": "113",
    "country": "Elveția",
    "city": "Basel",
    "address": "Stellwerk, Vogesenplatz 1, 4056 Basel",
    "location": "Altele",
    "latitude": 47.5702777,
    "longitude": 7.572776399999999
  },
  {
    "number": "114",
    "country": "Elveția",
    "city": "Bellinzona",
    "address": "Associazione Spazio Aperto, Via Gerretta 9a, 6500 Bellinzona",
    "location": "Altele",
    "latitude": 46.201122,
    "longitude": 9.030256999999999
  },
  {
    "number": "115",
    "country": "Elveția",
    "city": "Zurich 1",
    "address": "Hotel Swiss Star, Grubenstrasse 5, 8620 Wetzikon",
    "location": "Altele",
    "latitude": 47.31416670000001,
    "longitude": 8.796944400000001
  },
  {
    "number": "116",
    "country": "Elveția",
    "city": "Zurich 2",
    "address": "Hilton Garden Inn Zurich Limmattal, Kreuzăckerstrasse 5, 8957 Spreitenbach",
    "location": "Altele",
    "latitude": 47.4177264,
    "longitude": 8.3776192
  },
  {
    "number": "117",
    "country": "Emiratele Arabe Unite",
    "city": "Abu Dhabi",
    "address": "Abu Al Abyad street, villa no. 15, Al Bateen area",
    "location": "Ambasadă",
    "latitude": 24.4605119,
    "longitude": 54.34869899999999
  },
  {
    "number": "118",
    "country": "Emiratele Arabe Unite",
    "city": "Dubai 1",
    "address": "16a Street, Villa no. 8, Community 357, Al Safa 2, P.O. Box 333765, Dubai",
    "location": "Consulat General",
    "latitude": 25.1620718,
    "longitude": 55.23001200000001
  },
  {
    "number": "119",
    "country": "Emiratele Arabe Unite",
    "city": "Dubai 2",
    "address": "Dubai World Trade Center, sala Al Ain F, Sheikh Zayed Road",
    "location": "Altele",
    "latitude": 25.22334589999999,
    "longitude": 55.28693440000001
  },
  {
    "number": "120",
    "country": "Estonia",
    "city": "Tallinn",
    "address": "Ravala puiestee 5, etaj 5, 10143",
    "location": "Ambasadă",
    "latitude": 59.43245270000001,
    "longitude": 24.7513813
  },
  {
    "number": "121",
    "country": "Etiopia",
    "city": "Addis Abeba",
    "address": "Kirkos subcity, Woreda 04, 3_583 Street, House no. 1142, Addis Abeba, Ethiopia",
    "location": "Ambasadă",
    "latitude": 9.0024496,
    "longitude": 38.7629949
  },
  {
    "number": "122",
    "country": "Filipine",
    "city": "Manila",
    "address": "Legazpi nr.150, G.C. Corporate Plaza, 6, Legaspi Village, Makati City, CP 1229",
    "location": "Ambasadă",
    "latitude": 14.556562,
    "longitude": 121.016539
  },
  {
    "number": "123",
    "country": "Finlanda",
    "city": "Helsinki",
    "address": "Stenbackinkatu 24. 00250",
    "location": "Ambasadă",
    "latitude": 60.18647690000001,
    "longitude": 24.9101619
  },
  {
    "number": "124",
    "country": "Finlanda",
    "city": "Mariehamn",
    "address": "Norragatan 10A. 22100",
    "location": "Altele",
    "latitude": 60.09886199999999,
    "longitude": 19.9387277
  },
  {
    "number": "125",
    "country": "Finlanda",
    "city": "Tampere",
    "address": "Hameenkatu 1. 33100",
    "location": "Altele",
    "latitude": 61.49827399999999,
    "longitude": 23.7713029
  },
  {
    "number": "126",
    "country": "Finlanda",
    "city": "Turku",
    "address": "Yliopistonkatu 19. 20100",
    "location": "Altele",
    "latitude": 60.4521178,
    "longitude": 22.2664961
  },
  {
    "number": "127",
    "country": "Franța",
    "city": "Paris 1",
    "address": "123 Rue Saint-Dominique. 75007 Paris",
    "location": "Ambasadă",
    "latitude": 48.8585852,
    "longitude": 2.3029388
  },
  {
    "number": "128",
    "country": "Franța",
    "city": "Paris 2",
    "address": "3 rue de l\u0027Exposition, 75007, Paris",
    "location": "Consulat General",
    "latitude": 48.85815119999999,
    "longitude": 2.3028618
  },
  {
    "number": "129",
    "country": "Franța",
    "city": "Paris 3",
    "address": "1 Rue de 1\u0027Exposition, 75007, Paris",
    "location": "ICR",
    "latitude": 48.85433450000001,
    "longitude": 2.3134029
  },
  {
    "number": "130",
    "country": "Franța",
    "city": "Paris 4",
    "address": "1 Rue de 1\u0027Exposition, 75007, Paris",
    "location": "ICR",
    "latitude": 48.85433450000001,
    "longitude": 2.3134029
  },
  {
    "number": "131",
    "country": "Franța",
    "city": "Paris 5",
    "address": "Maison de la Vie Associative et Citoyenne, 93 Rue Saint-Dominique, 75007 Paris",
    "location": "Altele",
    "latitude": 48.85946939999999,
    "longitude": 2.307309
  },
  {
    "number": "132",
    "country": "Franța",
    "city": "Athis-Mons",
    "address": "12 Rue Edouard Vaillant, 91200, Athis-Mons",
    "location": "Altele -\u00A0Salle Rothenburg de la Maison des Associations, ",
    "latitude": 48.70598529999999,
    "longitude": 2.3952855
  },
  {
    "number": "133",
    "country": "Franța",
    "city": "Issy-les-Moulineaux",
    "address": "Maison de Corentin Celton, 10 rue Henri Mayer, 92130 Issy-les-Moulineaux",
    "location": "Altele",
    "latitude": 48.82779720000001,
    "longitude": 2.2768265
  },
  {
    "number": "134",
    "country": "Franța",
    "city": "Rueil-Malmaison",
    "address": "Salle La Passerelle, 13/15 rue Becquerel, 92500, Rueil-Malmaison",
    "location": "Altele",
    "latitude": 48.8864662,
    "longitude": 2.1711064
  },
  {
    "number": "135",
    "country": "Franța",
    "city": "Drancy",
    "address": "168-170 Avenue Jean Jaures, 93700,\u00A0 Drancy",
    "location": "Altele -\u00A0Salle Municipale Jean Jaures",
    "latitude": 48.9169531,
    "longitude": 2.4568541
  },
  {
    "number": "136",
    "country": "Franța",
    "city": "La Coumeuve",
    "address": "Salle Philippe Roux, 58 rue de la Convention, 93120 La Coumeuve",
    "location": "Altele",
    "latitude": 48.9278079,
    "longitude": 2.3905574
  },
  {
    "number": "137",
    "country": "Franța",
    "city": "Le Blanc-Mesnil 1",
    "address": "Centre Techinque Municipal, 2 Avenue Albert Einstein, 93150 Le Blanc-Mesnil",
    "location": "Altele",
    "latitude": 48.94759020000001,
    "longitude": 2.4670807
  },
  {
    "number": "138",
    "country": "Franța",
    "city": "Le Blanc-Mesnil 2",
    "address": "Centre Techinque Municipal, 2 Avenue Albert Einstein, 93150 Le Blanc-Mesnil",
    "location": "Altele",
    "latitude": 48.947562,
    "longitude": 2.4670914
  },
  {
    "number": "139",
    "country": "Franța",
    "city": "Le Blanc-Mesnil 3",
    "address": "Centre Techinque Municipal, 2 Avenue Albert Einstein, 93150 Le Blanc-Mesnil",
    "location": "Altele",
    "latitude": 48.9475972,
    "longitude": 2.4671209
  },
  {
    "number": "140",
    "country": "Franța",
    "city": "Montreuil 1",
    "address": "Sala Centrului cultural Ștefan cel Mare - 27 Rue de Roches, 93100 Montreuil",
    "location": "Altele",
    "latitude": 48.8715747,
    "longitude": 2.4648833
  },
  {
    "number": "141",
    "country": "Franța",
    "city": "Montreuil 2",
    "address": "Salle Annie Fratellini, 2/3 rue Jean Pierre Timbaud, 93100 Montreuil",
    "location": "Altele",
    "latitude": 48.86469130000001,
    "longitude": 2.366222
  },
  {
    "number": "142",
    "country": "Franța",
    "city": "Pantin 1",
    "address": "Salle Andre Bretton Ter, 25 rue du Pre Saint Gervais 93500 Pantin",
    "location": "Altele",
    "latitude": 48.89023799999999,
    "longitude": 2.4033062
  },
  {
    "number": "143",
    "country": "Franța",
    "city": "Pantin 2",
    "address": "Salle Andre Bretton Ter, 25 rue du Pre Saint Gervais 93500 Pantin",
    "location": "Altele",
    "latitude": 48.8902539,
    "longitude": 2.4033062
  },
  {
    "number": "144",
    "country": "Franța",
    "city": "Bry-sur-Mame",
    "address": "31-33 rue des Clotais - 94360 BRY-SUR-MARNE",
    "location": "Altele",
    "latitude": 48.8286181,
    "longitude": 2.5226962
  },
  {
    "number": "145",
    "country": "Franța",
    "city": "Fontainebleau",
    "address": "240 bis Rue Grande. 77300 Fontainebleau",
    "location": "Altele",
    "latitude": 48.41219659999999,
    "longitude": 2.7059021
  },
  {
    "number": "146",
    "country": "Franța",
    "city": "Brest",
    "address": "Gymnase Algesiras, 21 rue Algesiras, 29200 Brest",
    "location": "Altele",
    "latitude": 48.39095709999999,
    "longitude": -4.4903457
  },
  {
    "number": "147",
    "country": "Franța",
    "city": "Trappes",
    "address": "Maison de la Boissiere, 28 Rue du Centre, 78190 Trappes",
    "location": "Altele",
    "latitude": 48.7713042,
    "longitude": 1.9804481
  },
  {
    "number": "148",
    "country": "Franța",
    "city": "Le Mans",
    "address": "Salle Jean Ferrat, 115 Rue des Sablons, 72100 Le Mans",
    "location": "Altele",
    "latitude": 47.98891689999999,
    "longitude": 0.2145078
  },
  {
    "number": "149",
    "country": "Franța",
    "city": "Calais",
    "address": "Salle Municipale Paul Caron, 2 Rue du General Margueritte, 62100 Calais",
    "location": "Altele",
    "latitude": 50.9444281,
    "longitude": 1.8402489
  },
  {
    "number": "150",
    "country": "Franța",
    "city": "Bordeaux",
    "address": "Salle Municipale Quintin Loucheur, 96 rue de la Bechade, 33000 Bordeaux",
    "location": "Altele",
    "latitude": 44.8237111,
    "longitude": -0.5998666
  },
  {
    "number": "151",
    "country": "Franța",
    "city": "Pessac",
    "address": "Salle Municipale de Magonty, 5 Place de la Resistance, 33600 Pessac",
    "location": "Altele",
    "latitude": 44.7925742,
    "longitude": -0.7050234999999999
  },
  {
    "number": "152",
    "country": "Franța",
    "city": "Caen",
    "address": "Maison de Quartier Centre, 9 rue Neuve Bourg l’Abbe 14000 Caen",
    "location": "Altele",
    "latitude": 49.181425,
    "longitude": -0.3789217
  },
  {
    "number": "153",
    "country": "Franța",
    "city": "Saint-Herblain",
    "address": "Centre Socio-Culturel, 126 Boulevard Francois Mitterrand, 44800 Saint-Herblain",
    "location": "Altele",
    "latitude": 47.213083,
    "longitude": -1.6486492
  },
  {
    "number": "154",
    "country": "Franța",
    "city": "Lille 1",
    "address": "Caisse d\u0027Epargne Hauts de France, 612 Rue de la Chaude Riviere, 59800 Lille",
    "location": "Altele",
    "latitude": 50.6347392,
    "longitude": 3.0799316
  },
  {
    "number": "155",
    "country": "Franța",
    "city": "Lille 2",
    "address": "Caisse d\u0027Epargne Hauts de France, 612 Rue de la Chaude Riviere, 59800 Lille",
    "location": "Altele",
    "latitude": 50.634786,
    "longitude": 3.0799048
  },
  {
    "number": "156",
    "country": "Franța",
    "city": "Loudeac",
    "address": "Bâtiment la Providence, Salle no.3, 36 Rue de Moncontour, 22600, Loudeac",
    "location": "Altele",
    "latitude": 48.17882360000001,
    "longitude": -2.7556721
  },
  {
    "number": "157",
    "country": "Franța",
    "city": "Rennes",
    "address": "Maison de Quartier Le Cadran, 11 Avenue Andre Mussat, 35000 Rennes",
    "location": "Altele",
    "latitude": 48.13005209999999,
    "longitude": -1.6959875
  },
  {
    "number": "158",
    "country": "Franța",
    "city": "Nantes",
    "address": "Grand Hall 1 bis Maison des Syndicats, 4 place de la Gare de l\u0027Etat, 44300 Nantes",
    "location": "Altele",
    "latitude": 47.204271,
    "longitude": -1.5593592
  },
  {
    "number": "159",
    "country": "Franța",
    "city": "Troyes",
    "address": "Centre Rene Peltier, 110 bis Avenue Eduard Herriot, 10000 Troyes",
    "location": "Altele",
    "latitude": 48.27144680000001,
    "longitude": 4.082349
  },
  {
    "number": "160",
    "country": "Franța",
    "city": "Aulnay-sous-Bois",
    "address": "Foyer Dumont, 12 Boulevard Gallieni, 93600 Aulnay-sous-Bois",
    "location": "Altele",
    "latitude": 48.93095299999999,
    "longitude": 2.4956629
  },
  {
    "number": "161",
    "country": "Franța",
    "city": "Gagny",
    "address": "Complexe Sportif Arena Leon-Yves Bohain, 121 rue Jules Guesde, 93220 Gagny",
    "location": "Altele",
    "latitude": 48.8791178,
    "longitude": 2.5476781
  },
  {
    "number": "162",
    "country": "Franța",
    "city": "Villeneuve- Saint-Georges",
    "address": "Salle Cesaria Evora, rue Leon Blum, 94190 Villeneuve-Saint-Georges",
    "location": "Altele",
    "latitude": 48.7259417,
    "longitude": 2.4511778
  },
  {
    "number": "163",
    "country": "Franța",
    "city": "Champigny-sur-Mame",
    "address": "Salle Seguy, Maison de la vie citoyenne et des associations, 191 rue de Verdun, 94500 Champigny-sur-Mame",
    "location": "Altele",
    "latitude": 48.8132038,
    "longitude": 2.5068572
  },
  {
    "number": "164",
    "country": "Franța",
    "city": "Bondy",
    "address": "Mairie de Bondy, Esplanade Claude Fuzier, 93140 Bondy",
    "location": "Altele",
    "latitude": 48.90168999999999,
    "longitude": 2.481069
  },
  {
    "number": "165",
    "country": "Franța",
    "city": "Tours",
    "address": "Salle Charcot, 2 rue Coste et Bellonte, 37000 Tours",
    "location": "Altele",
    "latitude": 47.3766347,
    "longitude": 0.6962318
  },
  {
    "number": "166",
    "country": "Franța",
    "city": "Orleans",
    "address": "Salle Madeleine, 103 Rue du Faubourg Madeleine, 45000 Orleans",
    "location": "Altele",
    "latitude": 47.89962989999999,
    "longitude": 1.8800008
  },
  {
    "number": "167",
    "country": "Franța",
    "city": "Ivry-sur-Seine",
    "address": "Espace Robespierre, 2 rue Robespierre, 94200 Ivry-sur-Seine",
    "location": "Altele",
    "latitude": 48.8108882,
    "longitude": 2.3836209
  },
  {
    "number": "168",
    "country": "Franța",
    "city": "Rouen",
    "address": "Maison de Quartier Saint-Hilaire, 167 rue Descroizilles, 76000 Rouen",
    "location": "Altele",
    "latitude": 49.4436371,
    "longitude": 1.11655
  },
  {
    "number": "169",
    "country": "Franța",
    "city": "La Ferte-sous-Jouarre",
    "address": "10 Allee du Jumelage, 77260 La Ferte-sous-Jouarre",
    "location": "Altele",
    "latitude": 48.94483469999999,
    "longitude": 3.1326691
  },
  {
    "number": "170",
    "country": "Franța",
    "city": "Les Clayes-sous-Bois",
    "address": "4 Avenue du President John Fitzgerald Kennedy, 78340 Les Clayes-sous-Bois",
    "location": "Altele",
    "latitude": 48.8301247,
    "longitude": 1.9805254
  },
  {
    "number": "171",
    "country": "Franța",
    "city": "Sarcelles",
    "address": "Maison de quartier Valery Watteau - 1 route des Refuzniks, 95200 Sarcelles",
    "location": "Altele",
    "latitude": 48.98114409999999,
    "longitude": 2.3892511
  },
  {
    "number": "172",
    "country": "Principatul Monaco",
    "city": "Monaco",
    "address": "Hotel Le Meridien Beach Plaza, 22 Avenue Princesse Grace, 98000 Monte Carlo, Monaco",
    "location": "Altele",
    "latitude": 43.7482634,
    "longitude": 7.435820399999999
  },
  {
    "number": "173",
    "country": "Franța",
    "city": "Lyon 1",
    "address": "29 Rue de Boimel. 69003 Lyon",
    "location": "Consulat General",
    "latitude": 45.7634615,
    "longitude": 4.8440208
  },
  {
    "number": "174",
    "country": "Franța",
    "city": "Lyon 2",
    "address": "Salle Confluence, 111 Rue Smith, 69002 Lyon",
    "location": "Altele",
    "latitude": 45.7399658,
    "longitude": 4.8175511
  },
  {
    "number": "175",
    "country": "Franța",
    "city": "Saint-Genis-Laval",
    "address": "Salle Polyvalente du Mixcube, 69 Rue des Collonges, 69230 Saint-Genis-Laval",
    "location": "Altele",
    "latitude": 45.6941771,
    "longitude": 4.8041244
  },
  {
    "number": "176",
    "country": "Franța",
    "city": "Saint-Etienne",
    "address": "31 Rue des Anciens Combattants d\u0027Algerie, 42100 Saint-Etienne",
    "location": "Altele",
    "latitude": 45.4299471,
    "longitude": 4.4425156
  },
  {
    "number": "177",
    "country": "Franța",
    "city": "Annemasse/Ambilly",
    "address": "Maison communale de la Martiniere, 2 Rue de la Martiniere, 74100 Ambilly",
    "location": "Allele",
    "latitude": 46.1991249,
    "longitude": 6.2253615
  },
  {
    "number": "178",
    "country": "Franța",
    "city": "Dijon",
    "address": "Salle Camille Claudel, 4 Rue Camille Claudel, 21000 Dijon",
    "location": "Altele",
    "latitude": 47.32941130000001,
    "longitude": 5.0681379
  },
  {
    "number": "179",
    "country": "Franța",
    "city": "Clermont Ferrand",
    "address": "Hotel Campanile, 120 Avenue de la Republique, 63000 Clermont-Ferrand",
    "location": "Altele",
    "latitude": 45.78876229999999,
    "longitude": 3.1091166
  },
  {
    "number": "180",
    "country": "Franța",
    "city": "Grenoble/S aint-Martin-d\u0027Heres",
    "address": "10 Place Paul Eluard, 38400 Grenoble/Saint-Martin-d\u0027Heres",
    "location": "Altele",
    "latitude": 45.16538269999999,
    "longitude": 5.7479947
  },
  {
    "number": "181",
    "country": "Franța",
    "city": "Marsilia 1",
    "address": "City Center Vieux Porte, 2 rue Henri Barbusse, 13001 Marseille",
    "location": "Altele",
    "latitude": 43.2983176,
    "longitude": 5.374324
  },
  {
    "number": "182",
    "country": "Franța",
    "city": "Marsilia 2",
    "address": "City Center Vieux Porte, 2 rue Henri Barbusse, 13001 Marseille",
    "location": "Altele",
    "latitude": 43.2983176,
    "longitude": 5.374324
  },
  {
    "number": "183",
    "country": "Franța",
    "city": "Marignane",
    "address": "Mairie de Marignane, Salle basse du Chateau, Cours Mirabeau, 13700 Marignane",
    "location": "Altele",
    "latitude": 43.4170656,
    "longitude": 5.215901199999999
  },
  {
    "number": "184",
    "country": "Franța",
    "city": "Ajaccio",
    "address": "Hotel Ibis Styles Napoleon, 91 Cours Napoleon, 20000 Ajaccio",
    "location": "Altele",
    "latitude": 41.9292557,
    "longitude": 8.7387599
  },
  {
    "number": "185",
    "country": "Franța",
    "city": "Bastia",
    "address": "MUSÉE DE BASTIA,\u00A0\nPalais des Gouverneurs,\u00A0\nPlace du Donjon – Citadelle,\u00A0\n20410 BASTIA Cedex",
    "location": "Altele",
    "latitude": 42.6934755,
    "longitude": 9.450993499999999
  },
  {
    "number": "186",
    "country": "Franța",
    "city": "Nisa 1",
    "address": "Hotel Holiday Inn. 20 Bd. Hugo. 06000 Nice",
    "location": "Altele",
    "latitude": 43.69972560000001,
    "longitude": 7.264685900000001
  },
  {
    "number": "187",
    "country": "Franța",
    "city": "Nisa 2",
    "address": "Hotel Holiday Inn. 20 Bd. Hugo. 06000 Nice",
    "location": "Altele",
    "latitude": 43.69972560000001,
    "longitude": 7.264685900000001
  },
  {
    "number": "188",
    "country": "Franța",
    "city": "Montpellier",
    "address": "Salle Jacques, 1 er D Aragon, 117 rue des Etats Generaux, 34000 Montpellier",
    "location": "Altele",
    "latitude": 43.6044457,
    "longitude": 3.8982082
  },
  {
    "number": "189",
    "country": "Franța",
    "city": "Toulouse",
    "address": "Maison de la Citoyenneté Rive gauche. 20 place Jean Diebold 31000 - Toulouse",
    "location": "Altele",
    "latitude": 43.5978238,
    "longitude": 1.4301281
  },
  {
    "number": "190",
    "country": "Franța",
    "city": "Strasbourg 1",
    "address": "41 rue Schweighaeuser, 67000 Strasbourg",
    "location": "Consulat General",
    "latitude": 48.5884358,
    "longitude": 7.769150799999999
  },
  {
    "number": "191",
    "country": "Franța",
    "city": "Strasbourg 2",
    "address": "41 rue Schweighaeuser, 67000 Strasbourg",
    "location": "Consulat General",
    "latitude": 48.5884358,
    "longitude": 7.769150799999999
  },
  {
    "number": "192",
    "country": "Franța",
    "city": "Nancy",
    "address": "Pavilion D\u0027Orangerie, 54100 Nancy",
    "location": "Altele",
    "latitude": 48.6991471,
    "longitude": 6.140805599999999
  },
  {
    "number": "193",
    "country": "Franța",
    "city": "Colmar",
    "address": "Salle des Catherinettes, 8 Rue Kleber, 68000 Colmar",
    "location": "Altele",
    "latitude": 48.07858030000001,
    "longitude": 7.3539385
  },
  {
    "number": "194",
    "country": "Georgia",
    "city": "Tbilisi",
    "address": "Lvovi, nr. 7, Cartier Saburtalo Tbilisi, 0160",
    "location": "Ambasadă",
    "latitude": 41.72286330000001,
    "longitude": 44.7502267
  },
  {
    "number": "195",
    "country": "Germania",
    "city": "Berlin 1",
    "address": "Dorotheenstr.62-66, 10117 Berlin",
    "location": "Ambasadă",
    "latitude": 52.519124,
    "longitude": 13.3873501
  },
  {
    "number": "196",
    "country": "Germania",
    "city": "Berlin 2",
    "address": "Dorotheenstr.62-66, 10117 Berlin",
    "location": "Ambasadă",
    "latitude": 52.51890199999999,
    "longitude": 13.3863952
  },
  {
    "number": "197",
    "country": "Germania",
    "city": "Berlin 3",
    "address": "Dorotheenstr.62-66, 10117 Berlin",
    "location": "Ambasadă",
    "latitude": 52.5191501,
    "longitude": 13.3867493
  },
  {
    "number": "198",
    "country": "Germania",
    "city": "Braunschweig",
    "address": "Madamenweg 77, 38120 Braunschweig",
    "location": "Altele",
    "latitude": 52.2584714,
    "longitude": 10.4830346
  },
  {
    "number": "199",
    "country": "Germania",
    "city": "Bremen",
    "address": "An der Weide 50a. 28195 Bremen",
    "location": "Altele",
    "latitude": 53.0813375,
    "longitude": 8.816006600000001
  },
  {
    "number": "200",
    "country": "Germania",
    "city": "Dresden",
    "address": "Ferdinandplatz 2, 01069 Dresden",
    "location": "Altele",
    "latitude": 51.0455964,
    "longitude": 13.738565
  },
  {
    "number": "201",
    "country": "Germania",
    "city": "Erfurt",
    "address": "GrunstraBe 9. 99084 Erfurt",
    "location": "Altele",
    "latitude": 50.9773675,
    "longitude": 11.0382781
  },
  {
    "number": "202",
    "country": "Germania",
    "city": "Hamburg 1",
    "address": "Albert-Einstein-Ring 11-15. 22761 Hamburg",
    "location": "Altele",
    "latitude": 53.57492999999999,
    "longitude": 9.888019999999999
  },
  {
    "number": "203",
    "country": "Germania",
    "city": "Hamburg 2",
    "address": "Rudolfstraße 5.21107 Hamburg",
    "location": "Altele",
    "latitude": 53.51716480000001,
    "longitude": 9.9836393
  },
  {
    "number": "204",
    "country": "Germania",
    "city": "Hanovra 1",
    "address": "Anne-Stache-Allee 7. 30459 Hannover",
    "location": "Altele",
    "latitude": 52.34214309999999,
    "longitude": 9.7243324
  },
  {
    "number": "205",
    "country": "Germania",
    "city": "Hanovra 2",
    "address": "Anne-Stache-Allee 7. 30459 Hannover",
    "location": "Altele",
    "latitude": 52.34214309999999,
    "longitude": 9.7243324
  },
  {
    "number": "206",
    "country": "Germania",
    "city": "Kiel",
    "address": "Geschwister-Scholl-StraBe 15. 24143 Kiel",
    "location": "Altele",
    "latitude": 54.30727559999999,
    "longitude": 10.1605409
  },
  {
    "number": "207",
    "country": "Germania",
    "city": "Leipzig",
    "address": "Russenstrasse 196, 04288 Leipzig",
    "location": "Altele",
    "latitude": 51.3025361,
    "longitude": 12.4506593
  },
  {
    "number": "208",
    "country": "Germania",
    "city": "Lubeck",
    "address": "Bei der Lohmuhle 13, 23554 Lubeck",
    "location": "Altele",
    "latitude": 53.8796658,
    "longitude": 10.6681215
  },
  {
    "number": "209",
    "country": "Germania",
    "city": "Quakenbruck 1",
    "address": "Markt 5. 49610 Quakenbruck",
    "location": "Altele",
    "latitude": 52.67541399999999,
    "longitude": 7.957064799999999
  },
  {
    "number": "210",
    "country": "Germania",
    "city": "Quakenbruck 2",
    "address": "Markt 5. 49610 Quakenbruck",
    "location": "Altele",
    "latitude": 52.67541399999999,
    "longitude": 7.957064799999999
  },
  {
    "number": "211",
    "country": "Germania",
    "city": "Sogel",
    "address": "Püttkesberge 13. 49751 Sogel",
    "location": "Altele",
    "latitude": 52.8336818,
    "longitude": 7.5141524
  },
  {
    "number": "212",
    "country": "Germania",
    "city": "Schuller",
    "address": "Auf dem Hof 2 54586 Schuller",
    "location": "Altele",
    "latitude": 50.3360431,
    "longitude": 6.57505
  },
  {
    "number": "213",
    "country": "Germania",
    "city": "Trier",
    "address": "Mercure Hotel. Porta-Nigra-Platz 1 54292 Trier",
    "location": "Altele",
    "latitude": 49.76029589999999,
    "longitude": 6.644384899999999
  },
  {
    "number": "214",
    "country": "Germania",
    "city": "Neunkirchen",
    "address": "Stummsche Reithalle, Saarbrücker Straße 21, 66538 Neunkirchen",
    "location": "Altele",
    "latitude": 49.3480538,
    "longitude": 7.1721042
  },
  {
    "number": "215",
    "country": "Germania",
    "city": "Neustadt an der Weinstrasse",
    "address": "Le Quartier Hornbach 19, 67433 Neustadt an der Wein stras fie",
    "location": "Altele",
    "latitude": 49.3408241,
    "longitude": 8.167711299999999
  },
  {
    "number": "216",
    "country": "Germania",
    "city": "Ludwigshafen",
    "address": "Waltraudenstrasse 34, 67059 Ludwigshafen",
    "location": "Altele",
    "latitude": 49.4818243,
    "longitude": 8.426050699999999
  },
  {
    "number": "217",
    "country": "Germania",
    "city": "Mainz",
    "address": "Haus der Kulturen, Wormser Strafie 201, 55130 Mainz",
    "location": "Altele",
    "latitude": 49.9760312,
    "longitude": 8.3125584
  },
  {
    "number": "218",
    "country": "Germania",
    "city": "Offenbach 1",
    "address": "Backstrasse 12A, 63069 Offenbach",
    "location": "Altele",
    "latitude": 50.0891026,
    "longitude": 8.7467918
  },
  {
    "number": "219",
    "country": "Germania",
    "city": "Offenbach 2",
    "address": "Kathe-Kollwitz-Schule. Buchhugelallee 90. 63071 Offenbach am Main",
    "location": "Altele",
    "latitude": 50.09118410000001,
    "longitude": 8.7825001
  },
  {
    "number": "220",
    "country": "Germania",
    "city": "Frankfurt",
    "address": "Im Barengarten 11, 60599 Frankfurt am Main",
    "location": "Altele",
    "latitude": 50.1036501,
    "longitude": 8.7133869
  },
  {
    "number": "221",
    "country": "Germania",
    "city": "Langenselbold",
    "address": "Am Seegraben 4, 63505 Langenselbold",
    "location": "Altele",
    "latitude": 50.1638538,
    "longitude": 9.0468001
  },
  {
    "number": "222",
    "country": "Germania",
    "city": "Kassel",
    "address": "Friedrich Eberth Strasse 249. 34119 Kassel",
    "location": "Altele",
    "latitude": 51.31541180000001,
    "longitude": 9.453509499999999
  },
  {
    "number": "223",
    "country": "Germania",
    "city": "Paderborn",
    "address": "Klingenderstrasse 13, 33100 Paderborn",
    "location": "Altele",
    "latitude": 51.7277782,
    "longitude": 8.7763832
  },
  {
    "number": "224",
    "country": "Germania",
    "city": "Gutersloh 1",
    "address": "Schledebruckestrasse 170. 33334 Gutersloh",
    "location": "Altele",
    "latitude": 51.8843642,
    "longitude": 8.366529399999999
  },
  {
    "number": "225",
    "country": "Germania",
    "city": "Gutersloh 2",
    "address": "Marienfelderstrasse 4A, 33330 Gutersloh",
    "location": "Altele",
    "latitude": 51.91036869999999,
    "longitude": 8.3705961
  },
  {
    "number": "226",
    "country": "Germania",
    "city": "Bochum",
    "address": "Castroper Str 89. 44791. Bochum",
    "location": "Altele",
    "latitude": 51.4866576,
    "longitude": 7.230303900000001
  },
  {
    "number": "227",
    "country": "Germania",
    "city": "Dusseldorf",
    "address": "Bachstrasse 8. 40223 Dusseldorf",
    "location": "Altele",
    "latitude": 51.20826059999999,
    "longitude": 6.7654804
  },
  {
    "number": "228",
    "country": "Germania",
    "city": "Monchengladbach",
    "address": "Rudolfstrasse 9, 41068 Monchengladbach",
    "location": "Altele",
    "latitude": 51.1941171,
    "longitude": 6.4162735
  },
  {
    "number": "229",
    "country": "Germania",
    "city": "Koln",
    "address": "Elisabeth-Breuer-StraBe 48. 51065 Koln",
    "location": "Altele",
    "latitude": 50.959484,
    "longitude": 7.008202799999999
  },
  {
    "number": "230",
    "country": "Germania",
    "city": "Bonn 1",
    "address": "Legionsweg 14 53117 Bonn",
    "location": "Consulat General",
    "latitude": 50.75060799999999,
    "longitude": 7.1011638
  },
  {
    "number": "231",
    "country": "Germania",
    "city": "Bonn 2",
    "address": "Legionsweg 14 53117 Bonn",
    "location": "Consulat General",
    "latitude": 50.75060799999999,
    "longitude": 7.1011638
  },
  {
    "number": "232",
    "country": "Germania",
    "city": "Bonn 3",
    "address": "Legionsweg 14 53117 Bonn",
    "location": "Consulat General",
    "latitude": 50.75060799999999,
    "longitude": 7.1011638
  },
  {
    "number": "233",
    "country": "Germania",
    "city": "Aschaffenburg",
    "address": "Bussardweg 25. PLZ 63741",
    "location": "Altele",
    "latitude": 49.99206479999999,
    "longitude": 9.1163215
  },
  {
    "number": "234",
    "country": "Germania",
    "city": "Augsburg 1",
    "address": "StadionstraBe 21. PLZ 86159",
    "location": "Altele",
    "latitude": 48.3549369,
    "longitude": 10.8741977
  },
  {
    "number": "235",
    "country": "Germania",
    "city": "Augsburg 2",
    "address": "StadionstraBe 21. PLZ 86159",
    "location": "Altele",
    "latitude": 48.3549369,
    "longitude": 10.8741977
  },
  {
    "number": "236",
    "country": "Germania",
    "city": "Augsburg 3",
    "address": "Am Eiskanal 20, PLZ 86161",
    "location": "Altele",
    "latitude": 48.35232569999999,
    "longitude": 10.934862
  },
  {
    "number": "237",
    "country": "Germania",
    "city": "Bamberg",
    "address": "Föhrenstraße 6. PLZ 96052",
    "location": "Altele",
    "latitude": 49.91049710000001,
    "longitude": 10.9278128
  },
  {
    "number": "238",
    "country": "Germania",
    "city": "Dachau",
    "address": "Ernst-Reuter-Platz 1. PLZ 85221",
    "location": "Altele",
    "latitude": 48.2598689,
    "longitude": 11.4592489
  },
  {
    "number": "239",
    "country": "Germania",
    "city": "Dinkelsbuhl",
    "address": "Weinmarkt 7. PLZ 91550",
    "location": "Altele",
    "latitude": 49.0697118,
    "longitude": 10.3183595
  },
  {
    "number": "240",
    "country": "Germania",
    "city": "Erding",
    "address": "Landshuter Str. 13. PLZ 85435",
    "location": "Altele",
    "latitude": 48.3074399,
    "longitude": 11.9117416
  },
  {
    "number": "241",
    "country": "Germania",
    "city": "Freising",
    "address": "LuitpoldstraBe 1. PLZ 85356",
    "location": "Altele",
    "latitude": 48.40066620000001,
    "longitude": 11.7544069
  },
  {
    "number": "242",
    "country": "Germania",
    "city": "Furth",
    "address": "Würzburger Str. 2. PLZ 90762",
    "location": "Altele",
    "latitude": 49.481781,
    "longitude": 10.9837421
  },
  {
    "number": "243",
    "country": "Germania",
    "city": "Ingolstadt 1",
    "address": "Stauffenbergstraße 2a. PLZ 85051",
    "location": "Altele",
    "latitude": 48.7573361,
    "longitude": 11.4325232
  },
  {
    "number": "244",
    "country": "Germania",
    "city": "Ingolstadt 2",
    "address": "Stauffenbergstraße 2a. PLZ 85051",
    "location": "Altele",
    "latitude": 48.7573361,
    "longitude": 11.4325232
  },
  {
    "number": "245",
    "country": "Germania",
    "city": "Kempten",
    "address": "Friedrich-Ebert-Str. 4. PLZ 87437",
    "location": "Altele",
    "latitude": 47.7061825,
    "longitude": 10.3250593
  },
  {
    "number": "246",
    "country": "Germania",
    "city": "Landshut",
    "address": "Neustadt 474/475. PIZ 84028",
    "location": "Altele",
    "latitude": 48.5340895,
    "longitude": 12.1534075
  },
  {
    "number": "247",
    "country": "Germania",
    "city": "Munchen 1",
    "address": "Hanauer Str. 103. PIZ 80993",
    "location": "Altele",
    "latitude": 48.1862564,
    "longitude": 11.5323345
  },
  {
    "number": "248",
    "country": "Germania",
    "city": "Munchen 2",
    "address": "Hanauer Str. 103. PIZ 80993",
    "location": "Altele",
    "latitude": 48.1862564,
    "longitude": 11.5323345
  },
  {
    "number": "249",
    "country": "Germania",
    "city": "Munchen 3",
    "address": "Hanauer Str. 103. PIZ 80993",
    "location": "Altele",
    "latitude": 48.1862618,
    "longitude": 11.5325571
  },
  {
    "number": "250",
    "country": "Germania",
    "city": "Munchen 4",
    "address": "Hanauer Str. 103. PIZ 80993",
    "location": "Altele",
    "latitude": 48.1861724,
    "longitude": 11.5321602
  },
  {
    "number": "251",
    "country": "Germania",
    "city": "Munchen 5",
    "address": "Hanauer Str. 103. PIZ 80993",
    "location": "Altele",
    "latitude": 48.1861527,
    "longitude": 11.5324016
  },
  {
    "number": "252",
    "country": "Germania",
    "city": "Nurnberg 1",
    "address": "Philipp-Koerber-Weg 1. PIZ 90439",
    "location": "Altele",
    "latitude": 49.4433248,
    "longitude": 11.0540381
  },
  {
    "number": "253",
    "country": "Germania",
    "city": "Nurnberg 2",
    "address": "Philipp-Koerber-Weg 1. PIZ 90439",
    "location": "Altele",
    "latitude": 49.4432132,
    "longitude": 11.0544619
  },
  {
    "number": "254",
    "country": "Germania",
    "city": "Nurnberg 3",
    "address": "Rothenbacher Hauptstraße 74. PIZ 90449",
    "location": "Altele",
    "latitude": 49.4155885,
    "longitude": 11.0318083
  },
  {
    "number": "255",
    "country": "Germania",
    "city": "Nurnberg 4",
    "address": "Rothenbacher Hauptstraße 74. PIZ 90449",
    "location": "Altele",
    "latitude": 49.4155885,
    "longitude": 11.0318083
  },
  {
    "number": "256",
    "country": "Germania",
    "city": "Regensburg",
    "address": "Schopperplatz 6. PIZ 93059",
    "location": "Altele",
    "latitude": 49.0244742,
    "longitude": 12.0866389
  },
  {
    "number": "257",
    "country": "Germania",
    "city": "Rosenheim",
    "address": "Römerstr. 3 83024 Rosenheim",
    "location": "Altele",
    "latitude": 47.8783007,
    "longitude": 12.1141454
  },
  {
    "number": "258",
    "country": "Germania",
    "city": "Straubing 1",
    "address": "Am Hagen 75, PLZ 94315",
    "location": "Altele",
    "latitude": 48.88746399999999,
    "longitude": 12.5617492
  },
  {
    "number": "259",
    "country": "Germania",
    "city": "Straubing 2",
    "address": "Am Hagen 75, PLZ 94315",
    "location": "Altele",
    "latitude": 48.8871571,
    "longitude": 12.5618511
  },
  {
    "number": "260",
    "country": "Germania",
    "city": "Traunreut",
    "address": "Siebenbürgener Str. 2. PLZ 83301",
    "location": "Altele",
    "latitude": 47.9680873,
    "longitude": 12.6065668
  },
  {
    "number": "261",
    "country": "Germania",
    "city": "Vilshofen an der Donau",
    "address": "Aidenbacher Str. 92. PIZ 94474",
    "location": "Altele",
    "latitude": 48.6141477,
    "longitude": 13.1761945
  },
  {
    "number": "262",
    "country": "Germania",
    "city": "Wurzburg 1",
    "address": "Frankenstraße 21. PIZ 97078",
    "location": "Altele",
    "latitude": 49.8089743,
    "longitude": 9.9628753
  },
  {
    "number": "263",
    "country": "Germania",
    "city": "Wurzburg 2",
    "address": "Frankenstraße 21. PIZ 97078",
    "location": "Altele",
    "latitude": 49.80911620000001,
    "longitude": 9.962880699999999
  },
  {
    "number": "264",
    "country": "Germania",
    "city": "Esslingen am Neckar",
    "address": "Georg-Christian-von-Kessler-Platz 2, 73728 Esslingen am Neckar",
    "location": "Altele",
    "latitude": 48.7420733,
    "longitude": 9.3056331
  },
  {
    "number": "265",
    "country": "Germania",
    "city": "Eppelheim",
    "address": "Gemeindehaus St. Franziskus, BlumenstraBe 33, 69214 Eppelheim",
    "location": "Altele",
    "latitude": 49.39975,
    "longitude": 8.631269999999999
  },
  {
    "number": "266",
    "country": "Germania",
    "city": "Freiburg im Breisgau",
    "address": "Emil-Thoma-Grundschule, Schutzenallee 33, 79102 Freiburg im Breisgau",
    "location": "Altele",
    "latitude": 47.987077,
    "longitude": 7.867541799999999
  },
  {
    "number": "267",
    "country": "Germania",
    "city": "Heilbronn",
    "address": "Herbststr.16. 74072 Heilbronn",
    "location": "Altele",
    "latitude": 49.13907569999999,
    "longitude": 9.2250894
  },
  {
    "number": "268",
    "country": "Germania",
    "city": "Karlsruhe 1",
    "address": "Europăische Schule Karlsruhe, Albert- S ch we itzer- StraBe 1, 76139 Karlsruhe",
    "location": "Altele",
    "latitude": 49.0462697,
    "longitude": 8.446122899999999
  },
  {
    "number": "269",
    "country": "Germania",
    "city": "Karlsruhe 2",
    "address": "Europăische Schule Karlsruhe, Albert-Schweitzer-StraBe 1, 76139 Karlsruhe",
    "location": "Altele",
    "latitude": 49.0462697,
    "longitude": 8.446122899999999
  },
  {
    "number": "270",
    "country": "Germania",
    "city": "Konstanz",
    "address": "Munsterplatz 1. 78462 Konstanz",
    "location": "Altele",
    "latitude": 47.66359949999999,
    "longitude": 9.174999099999999
  },
  {
    "number": "271",
    "country": "Germania",
    "city": "Ludwigsburg",
    "address": "Wilhelinstraße 11. 71638 Eudwigsburg",
    "location": "Altele",
    "latitude": 48.8959911,
    "longitude": 9.191735699999999
  },
  {
    "number": "272",
    "country": "Germania",
    "city": "Mannheim",
    "address": "Stadthaus N 1, 68161 Mannheim",
    "location": "Altele",
    "latitude": 49.48639290000001,
    "longitude": 8.4657993
  },
  {
    "number": "273",
    "country": "Germania",
    "city": "Pforzheim",
    "address": "Kulturhaus Osterfeld. Osterfelderstr. 12. 75172 Pforzheim",
    "location": "Altele",
    "latitude": 48.8930126,
    "longitude": 8.6878923
  },
  {
    "number": "274",
    "country": "Germania",
    "city": "Reutlingen",
    "address": "RingelbachstraBe 195/41. 72762 Reutlingen",
    "location": "Altele",
    "latitude": 48.4771284,
    "longitude": 9.1984306
  },
  {
    "number": "275",
    "country": "Germania",
    "city": "Schwăbisch Hall",
    "address": "StauffenbergstraBe 35 / 37. 74523 Schwăbisch Hali",
    "location": "Altele",
    "latitude": 49.11475900000001,
    "longitude": 9.7766071
  },
  {
    "number": "276",
    "country": "Germania",
    "city": "Sigmaringen",
    "address": "Stadthalle Sigmaringen, Georg-Zimmerer-StraBe 4, 72488 Sigmaringen",
    "location": "Altele",
    "latitude": 48.0850251,
    "longitude": 9.210717499999999
  },
  {
    "number": "277",
    "country": "Germania",
    "city": "Singen",
    "address": "Industriestr. 12. 78224 Singen",
    "location": "Altele",
    "latitude": 47.7437267,
    "longitude": 8.850062599999999
  },
  {
    "number": "278",
    "country": "Germania",
    "city": "Stuttgart",
    "address": "Hauptstatterstr. 70. 70178 Stuttgart",
    "location": "Consulat General",
    "latitude": 48.76992859999999,
    "longitude": 9.1743583
  },
  {
    "number": "279",
    "country": "Germania",
    "city": "Ulm 1",
    "address": "Bofinger StraBe 50. 89073 Ulm",
    "location": "Altele",
    "latitude": 48.412623,
    "longitude": 10.011818
  },
  {
    "number": "280",
    "country": "Germania",
    "city": "Ulm 2",
    "address": "Bolinger StraBe 50. 89073 Ulm",
    "location": "Altele",
    "latitude": 48.4374392,
    "longitude": 9.9358173
  },
  {
    "number": "281",
    "country": "Germania",
    "city": "Wangen im Allgău",
    "address": "Eeutkircher Straße 17. 88239 Wangen im Allgau",
    "location": "Altele",
    "latitude": 47.6900784,
    "longitude": 9.83733
  },
  {
    "number": "282",
    "country": "Republica Elenă",
    "city": "Atena 1",
    "address": "str. Emmanouil Benaki nr. 7, 15452 Paleo Psychiko, Atena",
    "location": "Ambasadă",
    "latitude": 37.9857191,
    "longitude": 23.7351503
  },
  {
    "number": "283",
    "country": "Republica Elenă",
    "city": "Atena 2",
    "address": "str. Liosion 123. Piaţa Attikis. 10445. Athens",
    "location": "Altele",
    "latitude": 37.9971003,
    "longitude": 23.72202649999999
  },
  {
    "number": "284",
    "country": "Republica Elenă",
    "city": "Atena 3",
    "address": "str. Agias Sofias 27. 10444. Atena",
    "location": "Altele",
    "latitude": 37.9918887,
    "longitude": 23.7182374
  },
  {
    "number": "285",
    "country": "Republica Elenă",
    "city": "Patra",
    "address": "Str.Filopoimenos nr 24. 26221. Patra",
    "location": "Altele",
    "latitude": 38.244745,
    "longitude": 21.7328905
  },
  {
    "number": "286",
    "country": "Republica Elenă",
    "city": "Sparta",
    "address": "str. Agiou Nikonos nr. 124. 23100. Sparta",
    "location": "Altele",
    "latitude": 37.0744087,
    "longitude": 22.4316635
  },
  {
    "number": "287",
    "country": "Republica Elenă",
    "city": "Preveza",
    "address": "str. Kosti Palama 2-6, vila Athanasiadis, 48100, Preveza",
    "location": "Altele",
    "latitude": 38.95762,
    "longitude": 20.7514186
  },
  {
    "number": "288",
    "country": "Republica Elenă",
    "city": "Creta/lraklio",
    "address": "Emm. Christodoulou 4, N. Alikarnassos Heraklion, Crete",
    "location": "Altele",
    "latitude": 35.3372877,
    "longitude": 25.1600453
  },
  {
    "number": "289",
    "country": "Republica Elenă",
    "city": "Creta/Chania",
    "address": "Str. Nearchou 23. 73134. Chania. Insula Creta",
    "location": "Altele",
    "latitude": 35.508858,
    "longitude": 24.025201
  },
  {
    "number": "290",
    "country": "Republica Elenă",
    "city": "Salonic",
    "address": "Str. Theagenous Charisi 78. CP. 54639. Salonic",
    "location": "Consulat General",
    "latitude": 40.6150929,
    "longitude": 22.9632967
  },
  {
    "number": "291",
    "country": "Republica Elenă",
    "city": "Larisa",
    "address": "Str. Geroulanou. nr. 2. CP. 41447. Larisa",
    "location": "Altele",
    "latitude": 39.6445175,
    "longitude": 22.4074286
  },
  {
    "number": "292",
    "country": "India",
    "city": "New Delhi",
    "address": "3/6 Shanti Niketan 110021, New Delhi",
    "location": "Ambasadă",
    "latitude": 28.5775512,
    "longitude": 77.1711524
  },
  {
    "number": "293",
    "country": "Indonezia",
    "city": "Jakarta",
    "address": "11. Teuku Cik Ditiro No.42-A 10. RT. 10/RW.5. Menteng. Kec. Menteng. Kota Jakarta Pusat. Daerah Khusus Ibukota Jakarta 10310",
    "location": "Ambasadă",
    "latitude": -6.199702699999999,
    "longitude": 106.8372029
  },
  {
    "number": "294",
    "country": "Regatul Hașemit al Iordaniei",
    "city": "Amman",
    "address": "Al-Madeenah Al-Munawarah, nr. 35, Amman, 11181",
    "location": "Ambasadă",
    "latitude": 31.9453712,
    "longitude": 35.9283594
  },
  {
    "number": "295",
    "country": "Irak",
    "city": "Bagdad",
    "address": "Mahalla 601. Zuquak 15. nr. C45. Al-Mansur Street. Bagdad",
    "location": "Ambasadă",
    "latitude": 33.3182847,
    "longitude": 44.3382266
  },
  {
    "number": "296",
    "country": "Irak",
    "city": "Erbil",
    "address": "Gulan St, Erbil, Erbil Governorate, 44001, Irak",
    "location": "Birou Consular - Ster Tower,\u00A0 etaj 7, camera 702",
    "latitude": 36.2021834,
    "longitude": 43.9817165
  },
  {
    "number": "297",
    "country": "Republica Islamică Iran",
    "city": "Teheran",
    "address": "89 Shahid Meshki (Fakhrabad), Ave. Baharestan, Teheran",
    "location": "Secție Consulară",
    "latitude": 35.7218583,
    "longitude": 51.3346954
  },
  {
    "number": "298",
    "country": "Irlanda",
    "city": "Dublin 1",
    "address": "Palmerston House, Ground Floor, Denzille Lane/Fenian Street, Dublin 2, D02WD37",
    "location": "Secție Consulară",
    "latitude": 53.3415213,
    "longitude": -6.248993299999999
  },
  {
    "number": "299",
    "country": "Irlanda",
    "city": "Dublin 2",
    "address": "Palmerston House, Ground Floor, Denzille Lane/Fenian Street, Dublin 2, D02WD37",
    "location": "Secție Consulară",
    "latitude": 53.3415213,
    "longitude": -6.248993299999999
  },
  {
    "number": "300",
    "country": "Irlanda",
    "city": "Dublin 3",
    "address": "Palmerston House, Ground Floor, Denzille Lane/Fenian Street, Dublin 2, D02WD37",
    "location": "Secție Consulară",
    "latitude": 53.3415661,
    "longitude": -6.2492347
  },
  {
    "number": "301",
    "country": "Irlanda",
    "city": "Dublin 4",
    "address": "Palmerston House, Ground Floor, Denzille Lane/Fenian Street, Dublin 2, D02WD37",
    "location": "Secție Consulară",
    "latitude": 53.3414636,
    "longitude": -6.248789500000001
  },
  {
    "number": "302",
    "country": "Irlanda",
    "city": "Dublin 5",
    "address": "Westmanstown Sports and Conference Centre, Lucan Road, Clonsilla, Dublin 15, D15Y2DH",
    "location": "Altele",
    "latitude": 53.3805621,
    "longitude": -6.441708999999999
  },
  {
    "number": "303",
    "country": "Irlanda",
    "city": "Dublin 6",
    "address": "Westmanstown Sports and Conference Centre, Lucan Road, Clonsilla, Dublin 15, D15Y2DH",
    "location": "Altele",
    "latitude": 53.3796917,
    "longitude": -6.442138099999999
  },
  {
    "number": "304",
    "country": "Irlanda",
    "city": "Dublin 7",
    "address": "Westmanstown Sports and Conference Centre, Lucan Road, Clonsilla, Dublin 15, D15Y2DH",
    "location": "Altele",
    "latitude": 53.3796917,
    "longitude": -6.442138099999999
  },
  {
    "number": "305",
    "country": "Irlanda",
    "city": "Dublin 8",
    "address": "Westmanstown Sports and Conference Centre, Lucan Road, Clonsilla, Dublin 15, D15Y2DH",
    "location": "Altele",
    "latitude": 53.3796917,
    "longitude": -6.442138099999999
  },
  {
    "number": "306",
    "country": "Irlanda",
    "city": "Dublin 9",
    "address": "Westmanstown Sports and Conference Centre, Lucan Road, Clonsilla, Dublin 15, D15Y2DH",
    "location": "Altele",
    "latitude": 53.38003730000001,
    "longitude": -6.4425887
  },
  {
    "number": "307",
    "country": "Irlanda",
    "city": "Dublin 10",
    "address": "Westmanstown Sports and Conference Centre, Lucan Road, Clonsilla, Dublin 15, D15Y2DH",
    "location": "Altele",
    "latitude": 53.3800245,
    "longitude": -6.441558700000001
  },
  {
    "number": "308",
    "country": "Irlanda",
    "city": "Cork",
    "address": "Little Island Sports Complex, Wallingstown, Little Island, Cork -T45 F449",
    "location": "Altele",
    "latitude": 51.90035389999999,
    "longitude": -8.3681169
  },
  {
    "number": "309",
    "country": "Irlanda",
    "city": "Drogheda",
    "address": "Aston Village Educate Together, Dunlin St, Aston Village, Drogheda, Co. Louth, A92 DR44",
    "location": "Altele",
    "latitude": 53.7310413,
    "longitude": -6.3288628
  },
  {
    "number": "310",
    "country": "Irlanda",
    "city": "Galway",
    "address": "Ardilaun House Hotel. Taylors Hill Road. Galway. H91 H29F",
    "location": "Altele",
    "latitude": 53.2675905,
    "longitude": -9.080869000000002
  },
  {
    "number": "311",
    "country": "Irlanda",
    "city": "Kilkenny",
    "address": "Kilkenny Ormonde Hotel, Ormonde Street, Kilkenny, R95 Y5CX",
    "location": "Altele",
    "latitude": 52.6496596,
    "longitude": -7.2531804
  },
  {
    "number": "312",
    "country": "Irlanda",
    "city": "Limerick",
    "address": "Ennis Road, Limerick city, Co. Limerick, V94 03F2",
    "location": "Altele",
    "latitude": 52.6663337,
    "longitude": -8.6325574
  },
  {
    "number": "313",
    "country": "Irlanda",
    "city": "Waterford",
    "address": "Hotel Viking. Cork Road. Waterford. X91Y657",
    "location": "Altele",
    "latitude": 52.242255,
    "longitude": -7.164738000000001
  },
  {
    "number": "314",
    "country": "Islanda",
    "city": "Reykjavik",
    "address": "Hotel Reykjavik Grand, Sigtun 28, Reykjavik 105",
    "location": "Altele",
    "latitude": 64.14263129999999,
    "longitude": -21.8913924
  },
  {
    "number": "315",
    "country": "Statul Israel",
    "city": "Tel Aviv 1",
    "address": "Paz Tower 2, Str. Shoham, Nr. 2, Et. 8, Ramat Gan, 52510",
    "location": "Secție Consulară",
    "latitude": 32.0846855,
    "longitude": 34.8002637
  },
  {
    "number": "316",
    "country": "Statul Israel",
    "city": "Tel Aviv 2",
    "address": "8 Shaul Hamelech Bvd.. 64733. Tel Aviv. Israel",
    "location": "ICR",
    "latitude": 32.0753059,
    "longitude": 34.7839623
  },
  {
    "number": "317",
    "country": "Statul Israel",
    "city": "Haifa",
    "address": "Habankim 3. CP 3326115. Haifa",
    "location": "Consulat General",
    "latitude": 32.8200077,
    "longitude": 34.9971317
  },
  {
    "number": "318",
    "country": "Italia",
    "city": "Roma 1",
    "address": "Via Nicolo Tartaglia. 40. cod poștal 00197. Roma",
    "location": "Ambasadă",
    "latitude": 41.9243811,
    "longitude": 12.4884695
  },
  {
    "number": "319",
    "country": "Italia",
    "city": "Roma 2",
    "address": "Via Nicolo Tartaglia. 40. cod poștal 00197. Roma",
    "location": "Ambasadă",
    "latitude": 41.9243252,
    "longitude": 12.4884052
  },
  {
    "number": "320",
    "country": "Italia",
    "city": "Roma 3",
    "address": "Piazza Jose de S.Martin, 1 cod poștal 00197, Roma",
    "location": "ICR",
    "latitude": 41.917103,
    "longitude": 12.4792168
  },
  {
    "number": "321",
    "country": "Italia",
    "city": "Roma 4",
    "address": "Viale delle Belle Arti. 110 cod poștal 00197. Roma",
    "location": "ICR",
    "latitude": 41.9166137,
    "longitude": 12.4818157
  },
  {
    "number": "322",
    "country": "Italia",
    "city": "Roma 5",
    "address": "Viale Libano 38-40. cod poștal 00144. Roma",
    "location": "Consulat General",
    "latitude": 41.8224443,
    "longitude": 12.4638966
  },
  {
    "number": "323",
    "country": "Italia",
    "city": "Roma 6",
    "address": "Viale Libano 38-40. cod poștal 00144. Roma",
    "location": "Consulat General",
    "latitude": 41.8224443,
    "longitude": 12.4638966
  },
  {
    "number": "324",
    "country": "Italia",
    "city": "Roma 7",
    "address": "Viale Libano 38-40. cod poștal 00144. Roma",
    "location": "Consulat General",
    "latitude": 41.8224443,
    "longitude": 12.4638966
  },
  {
    "number": "325",
    "country": "Italia",
    "city": "Ostia",
    "address": "Ostia - Via Claudio 1, Roma X",
    "location": "Altele",
    "latitude": 41.7306756,
    "longitude": 12.279695
  },
  {
    "number": "326",
    "country": "Italia",
    "city": "Monterotondo",
    "address": "Via John Fitzgerald Kennedy, 47, Monterotondo",
    "location": "Altele -\u00A0Centrul Social Comunal pentru Bătrâni ARCOBALENO APS",
    "latitude": 42.0541085,
    "longitude": 12.6181824
  },
  {
    "number": "327",
    "country": "Italia",
    "city": "Guidonia",
    "address": "via Maurizio Morris 7, cod poștal 00012, Guidonia Montecelio",
    "location": "Altele",
    "latitude": 41.9909323,
    "longitude": 12.7231988
  },
  {
    "number": "328",
    "country": "Italia",
    "city": "Palestrina",
    "address": "Via Gabriele d\u0027Annunzio, 2500036 Palestrina RM, Italia",
    "location": "Altele",
    "latitude": 41.8264496,
    "longitude": 12.8604441
  },
  {
    "number": "329",
    "country": "Italia",
    "city": "Tivoli",
    "address": "Ex Chiesa di San Michele - Sala Roesler Franz - Piazza Palatina, 1, cod poștal 00019, Tivoli",
    "location": "Altele",
    "latitude": 41.9643319,
    "longitude": 12.7990815
  },
  {
    "number": "330",
    "country": "Italia",
    "city": "Rignano Flaminio",
    "address": "Centro Sociale Comunale per Anziani - Via degli Orti, 2, cod poștal 00068 Rignano Flaminio RM",
    "location": "Altele",
    "latitude": 42.2086986,
    "longitude": 12.4813875
  },
  {
    "number": "331",
    "country": "Italia",
    "city": "Albano Laziale",
    "address": "Centro Anziani di Albano Laziale - Borgo Garibaldi, 12, cod poștal 00041, Albano Laziale",
    "location": "Altele",
    "latitude": 41.7267207,
    "longitude": 12.6603292
  },
  {
    "number": "332",
    "country": "Italia",
    "city": "Ladispoli",
    "address": "Teatrul Marco Vannini - Via Yvon De Begnac, cod poștal 00055, Ladispoli",
    "location": "Altele",
    "latitude": 41.9553969,
    "longitude": 12.071397
  },
  {
    "number": "333",
    "country": "Italia",
    "city": "Frosinone",
    "address": "Casa della Cultura - Via Giordano Bruno, cod poștal 03100, Frosinone",
    "location": "Altele",
    "latitude": 41.6441099,
    "longitude": 13.3528321
  },
  {
    "number": "334",
    "country": "Italia",
    "city": "Latina",
    "address": "Hotel Europa, Via E. Filiberto, 14, cod poștal 04100 Latina",
    "location": "Altele",
    "latitude": 41.4680536,
    "longitude": 12.9017358
  },
  {
    "number": "335",
    "country": "Italia",
    "city": "Viterbo",
    "address": "Centro sociale polivalente “Sacrario” - Via Santa Maria in Voltumo 18, cod poștal 01100 Viterbo",
    "location": "Altele",
    "latitude": 42.417854,
    "longitude": 12.1073157
  },
  {
    "number": "336",
    "country": "Italia",
    "city": "Temi",
    "address": "Sala de consiliu Piazza San Giovanni Paolo II nr. 1, cod poștal 05100, Temi",
    "location": "Altele",
    "latitude": 45.3918015,
    "longitude": 10.4868354
  },
  {
    "number": "337",
    "country": "Italia",
    "city": "Perugia",
    "address": "Via A. Diaz, N. 90, 06128 Perugia",
    "location": "Altele",
    "latitude": 43.0999651,
    "longitude": 12.3709168
  },
  {
    "number": "338",
    "country": "Italia",
    "city": "Pescara",
    "address": "Piazza Enrico Berlinguer, Pescara",
    "location": "Altele -\u00A0Ex-Centro Vaccinale - sottostazione ferroviaria di Porta Nuova",
    "latitude": 42.4617624,
    "longitude": 14.2160321
  },
  {
    "number": "339",
    "country": "Italia",
    "city": "Olbia",
    "address": "Sediul Primăriei din via Dante n. 1, cod poștal 07026, Olbia",
    "location": "Altele",
    "latitude": 40.923167,
    "longitude": 9.5048326
  },
  {
    "number": "340",
    "country": "Italia",
    "city": "Cagliari",
    "address": "Primărie - Sala EXTE - Via Roma 145, cod poștal 09124, Cagliari",
    "location": "Altele",
    "latitude": 39.2152784,
    "longitude": 9.1105184
  },
  {
    "number": "341",
    "country": "Italia",
    "city": "Napoli",
    "address": "Palazzo San Giacomo, Piazza Municipio, 25, cod postal 80133 Napoli NA",
    "location": "Altele",
    "latitude": 40.8403147,
    "longitude": 14.2504756
  },
  {
    "number": "342",
    "country": "Italia",
    "city": "Bari 1",
    "address": "Via Bruno Zaccaro Nr.17/19 Bari. CAP 70126",
    "location": "Consulat General",
    "latitude": 41.0906575,
    "longitude": 16.8891467
  },
  {
    "number": "343",
    "country": "Italia",
    "city": "Bari 2",
    "address": "Via Bruno Zaccaro Nr.17/19 Bari. CAP 70126",
    "location": "Consulat General",
    "latitude": 41.0906575,
    "longitude": 16.8891467
  },
  {
    "number": "344",
    "country": "Italia",
    "city": "Trani",
    "address": "Via San Martino. Nr. 16 Trani CAP 76125",
    "location": "Altele",
    "latitude": 41.2811966,
    "longitude": 16.4178135
  },
  {
    "number": "345",
    "country": "Italia",
    "city": "Foggia",
    "address": "Ufficio Anagrafe. Viale Candelaro Nr. 102 Foggia CAP 71121",
    "location": "Altele",
    "latitude": 41.4588986,
    "longitude": 15.542447
  },
  {
    "number": "346",
    "country": "Italia",
    "city": "Lecce",
    "address": "Centro Sociale Comunale. Via Matera Nr. 2. Lecce CAP 73100",
    "location": "Altele",
    "latitude": 40.3568674,
    "longitude": 18.2010978
  },
  {
    "number": "347",
    "country": "Italia",
    "city": "Taranto",
    "address": "Servizi Demografici, Via Fiume Nr. 64, Taranto CAP 74121",
    "location": "Altele",
    "latitude": 40.4645588,
    "longitude": 17.2716216
  },
  {
    "number": "348",
    "country": "Italia",
    "city": "Ginosa",
    "address": "Istituto Comprensivo, G. Deledda - S. G. Bosco, Via Quarto, Nr. 8, Ginosa CAP 74013",
    "location": "Altele",
    "latitude": 40.5765138,
    "longitude": 16.7554894
  },
  {
    "number": "349",
    "country": "Italia",
    "city": "Cosenza",
    "address": "Ufficio Relazioni Pubblico Piazza dei Bruzi, Nr. 1, Cosenza CAP 87100",
    "location": "Altele",
    "latitude": 39.2931385,
    "longitude": 16.256292
  },
  {
    "number": "350",
    "country": "Italia",
    "city": "Reggio Calabria",
    "address": "Sala G. Versace. Palazzo CE.DIR.Via Sant\u0027Anna II Tronco. Reggio Calabria CAP 89128",
    "location": "Altele",
    "latitude": 38.1034126,
    "longitude": 15.6530564
  },
  {
    "number": "351",
    "country": "Italia",
    "city": "Crotone",
    "address": "Scuola Media \u0022Vittorio Altieri\u0022 Via Cutro Nr. 102. Crotone CAP 88900",
    "location": "Altele",
    "latitude": 39.0807004,
    "longitude": 17.1230882
  },
  {
    "number": "352",
    "country": "Italia",
    "city": "Catanzaro",
    "address": "Istituto Comprensivo \u0022Casalinuovo”, Via Stretto Antico Snc, Catanzaro CAP 88100",
    "location": "Altele",
    "latitude": 38.82548329999999,
    "longitude": 16.6091592
  },
  {
    "number": "353",
    "country": "Italia",
    "city": "Vido Valentia",
    "address": "Biblioteca Comunale, Via Jan Palach snc, Vibo Valentia CAP 89900",
    "location": "Altele",
    "latitude": 38.6749236,
    "longitude": 16.0930452
  },
  {
    "number": "354",
    "country": "Italia",
    "city": "Potenza",
    "address": "Scuola \u0022Don Lorenzo Milani\u0022 Via Bramante snc, Potenza CAP 85100",
    "location": "Altele",
    "latitude": 40.6295723,
    "longitude": 15.8041448
  },
  {
    "number": "355",
    "country": "Italia",
    "city": "Matera",
    "address": "Via G. Sallustio Crispo snc, 75100 Matera, Complesso Commerciale Il Circo",
    "location": "Altele",
    "latitude": 40.66636010000001,
    "longitude": 16.6044454
  },
  {
    "number": "356",
    "country": "Italia",
    "city": "Campobasso",
    "address": "Terzo Spazio, ex Scuola CEP Nord, Via Eugenio Cirese snc, Campobasso CAP 86100",
    "location": "Altele",
    "latitude": 41.5661626,
    "longitude": 14.6745045
  },
  {
    "number": "357",
    "country": "Italia",
    "city": "Isernia",
    "address": "Palazzo San Francesco, Piazza Guglielmo Marconi, Nr. 3, Isernia CAP 86170",
    "location": "Altele",
    "latitude": 41.5971629,
    "longitude": 14.234533
  },
  {
    "number": "358",
    "country": "Italia",
    "city": "Bologna 1",
    "address": "Bologna.Via Guelfa. n.9. 40138",
    "location": "Consulat General",
    "latitude": 44.4914387,
    "longitude": 11.3872882
  },
  {
    "number": "359",
    "country": "Italia",
    "city": "Bologna 2 (Borgo Panigale)",
    "address": "Bologna. Via Battindarno n.123. 40133",
    "location": "Altele",
    "latitude": 44.5021294,
    "longitude": 11.2967869
  },
  {
    "number": "360",
    "country": "Italia",
    "city": "Ancona",
    "address": "Ancona, Via Scrima n.17, 60127",
    "location": "Altele",
    "latitude": 43.6035946,
    "longitude": 13.5061042
  },
  {
    "number": "361",
    "country": "Italia",
    "city": "Arezzo",
    "address": "Arezzo, Piazza San Domenico 5-6, 52100",
    "location": "Altele",
    "latitude": 43.4687118,
    "longitude": 11.881534
  },
  {
    "number": "362",
    "country": "Italia",
    "city": "Budrio",
    "address": "Budrio, Via Saffi n. 50, 40054",
    "location": "Altele",
    "latitude": 44.5379164,
    "longitude": 11.5375209
  },
  {
    "number": "363",
    "country": "Italia",
    "city": "Cesena",
    "address": "Piazza Anna Magnani n.143. 47522",
    "location": "Altele",
    "latitude": 44.1361255,
    "longitude": 12.2269821
  },
  {
    "number": "364",
    "country": "Italia",
    "city": "Ferrara",
    "address": "Ferrara, Via Darsena, n.57",
    "location": "Altele",
    "latitude": 44.8347527,
    "longitude": 11.6066448
  },
  {
    "number": "365",
    "country": "Italia",
    "city": "Firenze",
    "address": "Firenze, Via del Ponte Rosso, n.2, Sala dei Marmi, Piazza della Liberta 12, 50132",
    "location": "Altele",
    "latitude": 43.7848054,
    "longitude": 11.2623623
  },
  {
    "number": "366",
    "country": "Italia",
    "city": "Forli",
    "address": "Forli. Piazzetta Corbizzi n.9. 47121",
    "location": "Altele",
    "latitude": 44.2222353,
    "longitude": 12.0321129
  },
  {
    "number": "367",
    "country": "Italia",
    "city": "Imola",
    "address": "Imola, Viale Cappuccini n. 14, 40026",
    "location": "Altele",
    "latitude": 44.3557636,
    "longitude": 11.7011179
  },
  {
    "number": "368",
    "country": "Italia",
    "city": "Livorno",
    "address": "Livorno, Via Padre Nicola Magri n. 116a, 57121",
    "location": "Altele",
    "latitude": 43.563497,
    "longitude": 10.336952
  },
  {
    "number": "369",
    "country": "Italia",
    "city": "Lucca",
    "address": "Via Provinciale di S. Alessio n.2145. 55100",
    "location": "Altele",
    "latitude": 43.8622854,
    "longitude": 10.4812282
  },
  {
    "number": "370",
    "country": "Italia",
    "city": "Macerata",
    "address": "Macerata, Viale Indipendenza n.71, 62100",
    "location": "Altele",
    "latitude": 43.2980829,
    "longitude": 13.43
  },
  {
    "number": "371",
    "country": "Italia",
    "city": "Massa",
    "address": "Massa. Via San Leonardo n.484. 54100",
    "location": "Altele",
    "latitude": 44.0100003,
    "longitude": 10.1013835
  },
  {
    "number": "372",
    "country": "Italia",
    "city": "Modena",
    "address": "Modena. Via Viterbo, n.80. 41125",
    "location": "Altele",
    "latitude": 44.6228224,
    "longitude": 10.9371655
  },
  {
    "number": "373",
    "country": "Italia",
    "city": "Montecatini Terme",
    "address": "Viale Verdi 66/68\n51016 Montecatini Terme",
    "location": "Altele - Palazzo del Turismo",
    "latitude": 43.884758,
    "longitude": 10.7736481
  },
  {
    "number": "374",
    "country": "Italia",
    "city": "Parma",
    "address": "Parma, Via Bizzozzero, n.19, 43123",
    "location": "Altele",
    "latitude": 44.7870634,
    "longitude": 10.3300557
  },
  {
    "number": "375",
    "country": "Italia",
    "city": "Pesaro",
    "address": "Pesaro,Via Confalonieri n.9, 61122",
    "location": "Altele",
    "latitude": 43.9027247,
    "longitude": 12.9051494
  },
  {
    "number": "376",
    "country": "Italia",
    "city": "Piacenza",
    "address": "Piacenza, Via Cantone S.Nazzaro, n. 16, 29121",
    "location": "Altele",
    "latitude": 45.0550815,
    "longitude": 9.6849528
  },
  {
    "number": "377",
    "country": "Italia",
    "city": "Pisa",
    "address": "Pisa, 45 Piazza della Fornace, 56121",
    "location": "Altele",
    "latitude": 43.6973097,
    "longitude": 10.4481268
  },
  {
    "number": "378",
    "country": "Italia",
    "city": "Pistoia",
    "address": "Pistoia. Via Cancellieri n.30. 51100",
    "location": "Altele",
    "latitude": 43.9338965,
    "longitude": 10.9127769
  },
  {
    "number": "379",
    "country": "Italia",
    "city": "Ravenna",
    "address": "Ravenna. Piazza Medaglia D\u0027Oro n.4. 48122",
    "location": "Altele",
    "latitude": 44.4186752,
    "longitude": 12.2228392
  },
  {
    "number": "380",
    "country": "Italia",
    "city": "Rimini",
    "address": "Rimini. Via XXIII Settembre. n.124. 47921",
    "location": "Altele",
    "latitude": 44.0679302,
    "longitude": 12.5495287
  },
  {
    "number": "381",
    "country": "Italia",
    "city": "San Lazzaro di Savena",
    "address": "Banda Musicale San Lazzaro di Savena, Piazza della Liberta, 40068",
    "location": "Altele",
    "latitude": 44.470403,
    "longitude": 11.4071174
  },
  {
    "number": "382",
    "country": "Italia",
    "city": "Siena",
    "address": "Siena, Via Tolomei n.7, 53100",
    "location": "Altele",
    "latitude": 43.3367234,
    "longitude": 11.3008311
  },
  {
    "number": "383",
    "country": "Italia",
    "city": "Sesto Fiorentino",
    "address": "Sesto Fiorentino, Via Leopardi, n.72",
    "location": "Altele",
    "latitude": 43.841584,
    "longitude": 11.182534
  },
  {
    "number": "384",
    "country": "Italia",
    "city": "Catania 1",
    "address": "Via Misterbianco nr. 1, Catania, cod poștal 95131",
    "location": "Consulat",
    "latitude": 37.5063076,
    "longitude": 15.0961045
  },
  {
    "number": "385",
    "country": "Italia",
    "city": "Catania 2",
    "address": "Via Misterbianco nr. 1. Catania, cod postal 95131",
    "location": "Consulat",
    "latitude": 37.5063076,
    "longitude": 15.0961045
  },
  {
    "number": "386",
    "country": "Italia",
    "city": "Alcamo",
    "address": "Via Ugo Foscolo, nr. 1 Cittadela dei Giovanni, Alcamo 91011",
    "location": "Altele",
    "latitude": 37.9841948,
    "longitude": 12.961668
  },
  {
    "number": "387",
    "country": "Italia",
    "city": "Vittoria",
    "address": "Via del Tennis nr. 23. Vittoria, cod poștal 97019",
    "location": "Altele",
    "latitude": 36.9300538,
    "longitude": 14.4880832
  },
  {
    "number": "388",
    "country": "Italia",
    "city": "Palermo",
    "address": "Via Gerardo Astorino, nr. 36 Palermo Cap 90146",
    "location": "Altele",
    "latitude": 38.1641916,
    "longitude": 13.3242128
  },
  {
    "number": "389",
    "country": "Italia",
    "city": "Canicatti",
    "address": "Piazza San Domenico fn, Centro Culturale Comunale San Domenico, Canicatti Cap 92024",
    "location": "Altele",
    "latitude": 37.3570113,
    "longitude": 13.8469919
  },
  {
    "number": "390",
    "country": "Italia",
    "city": "Milano 1",
    "address": "Via Saponaro 30. 20142,\u00A0CAM Gratosoglio",
    "location": "Altele",
    "latitude": 45.40710009999999,
    "longitude": 9.173173799999999
  },
  {
    "number": "391",
    "country": "Italia",
    "city": "Milano 2",
    "address": "Via Saponaro 30. 20142,\u00A0CAM Gratosoglio",
    "location": "Altele",
    "latitude": 45.406136,
    "longitude": 9.172594399999999
  },
  {
    "number": "392",
    "country": "Italia",
    "city": "Milano 3",
    "address": "Via Saponaro 30. 20142,\u00A0CAM Gratosoglio",
    "location": "Altele",
    "latitude": 45.4078985,
    "longitude": 9.1736673
  },
  {
    "number": "393",
    "country": "Italia",
    "city": "Milano 4",
    "address": "Via Saponaro 30. 20142,\u00A0CAM Gratosoglio",
    "location": "Altele",
    "latitude": 45.4063167,
    "longitude": 9.1736673
  },
  {
    "number": "394",
    "country": "Italia",
    "city": "Bergamo 1",
    "address": "„Sala 5 Donizetti”, Largo Guglielmo Rontgen nr. 3, 24128",
    "location": "Altele",
    "latitude": 45.6910347,
    "longitude": 9.6443362
  },
  {
    "number": "395",
    "country": "Italia",
    "city": "Bergamo 2",
    "address": "„Sala 5 Donizetti”, Largo Guglielmo Rontgen nr. 3, 24128",
    "location": "Altele",
    "latitude": 45.6910347,
    "longitude": 9.6443362
  },
  {
    "number": "396",
    "country": "Italia",
    "city": "Bolzano",
    "address": "..Centro Europa\u0022. Viale Druso. 281/B. 39100",
    "location": "Altele",
    "latitude": 46.4942877,
    "longitude": 11.3222234
  },
  {
    "number": "397",
    "country": "Italia",
    "city": "Brescia 1",
    "address": "„Centro Civico del Quartiere Casazza”, Via Casazza, nr.46, 25136",
    "location": "Altele",
    "latitude": 45.5735129,
    "longitude": 10.2274122
  },
  {
    "number": "398",
    "country": "Italia",
    "city": "Brescia 2",
    "address": "„Centro Civico del Quartiere Casazza”, Via Casazza, nr.46, 25136",
    "location": "Altele",
    "latitude": 45.5735129,
    "longitude": 10.2274122
  },
  {
    "number": "399",
    "country": "Italia",
    "city": "Cles",
    "address": "Viale Alcide De Gasperi n. 163, 38023",
    "location": "Altele",
    "latitude": 37.52078360000001,
    "longitude": 15.1093869
  },
  {
    "number": "400",
    "country": "Italia",
    "city": "Como",
    "address": "Via Collegio dei Dottori nr. 9. (Centro Civico). 22100",
    "location": "Altele",
    "latitude": 45.8100445,
    "longitude": 9.082641899999999
  },
  {
    "number": "401",
    "country": "Italia",
    "city": "Crema",
    "address": "Via Giacomo Matteotti, 47, 26013 Crema CR",
    "location": "Altele",
    "latitude": 45.3608041,
    "longitude": 9.6888735
  },
  {
    "number": "402",
    "country": "Italia",
    "city": "Cremona",
    "address": "„Sala Informagiovani”, Via Palestro 17, 26100",
    "location": "Altele",
    "latitude": 45.1378753,
    "longitude": 10.0205141
  },
  {
    "number": "403",
    "country": "Italia",
    "city": "Lodi",
    "address": "\u0022Teatrino\u0022 - Via Paolo Gorini. nr.21. 26900",
    "location": "Altele",
    "latitude": 45.3115118,
    "longitude": 9.507438499999999
  },
  {
    "number": "404",
    "country": "Italia",
    "city": "Mantova",
    "address": "Via Facciotto nr. 7. 46100",
    "location": "Altele",
    "latitude": 45.14563120000001,
    "longitude": 10.7870583
  },
  {
    "number": "405",
    "country": "Italia",
    "city": "Monza 1",
    "address": "„Centro Civico di San Rocco”, Via D\u0027Annunzio nr. 35, 20900",
    "location": "Altele",
    "latitude": 45.563452,
    "longitude": 9.264915999999999
  },
  {
    "number": "406",
    "country": "Italia",
    "city": "Monza 2",
    "address": "„Centro Civico di San Rocco”, Via D\u0027Annunzio nr. 35, 20900",
    "location": "Altele",
    "latitude": 45.563452,
    "longitude": 9.264915999999999
  },
  {
    "number": "407",
    "country": "Italia",
    "city": "Montichiari",
    "address": "„Casa de He Associazioni” , Via Trieste, nr. 77/M, 25018",
    "location": "Altele",
    "latitude": 45.4110994,
    "longitude": 10.395366
  },
  {
    "number": "408",
    "country": "Italia",
    "city": "Pavia",
    "address": "Pavia Nord. Via Acerbi 27. 27100",
    "location": "Altele",
    "latitude": 45.1995295,
    "longitude": 9.161931899999999
  },
  {
    "number": "409",
    "country": "Italia",
    "city": "Romano Di Lombardia",
    "address": "Piazza Rocca nr. 1, 24058",
    "location": "Altele -\u00A0„Sala Rocca”",
    "latitude": 45.5212724,
    "longitude": 9.753448499999999
  },
  {
    "number": "410",
    "country": "Italia",
    "city": "Rovereto",
    "address": "„Centro Civico Lombardi” - Via Benacense nr. 33, 38068",
    "location": "Altele",
    "latitude": 45.8799499,
    "longitude": 11.0338403
  },
  {
    "number": "411",
    "country": "Italia",
    "city": "Sesto San Giovanni",
    "address": "..Spazio Arte\u0022 - Via Maestri del Lavoro nr. 10. 20099",
    "location": "Altele",
    "latitude": 45.5301002,
    "longitude": 9.2312131
  },
  {
    "number": "412",
    "country": "Italia",
    "city": "Trento",
    "address": "Via Giongo nr. 7 Gardolo. 38121",
    "location": "Altele\u00A0„Sala ITEA’\u0027 - ",
    "latitude": 46.10228009999999,
    "longitude": 11.1179589
  },
  {
    "number": "413",
    "country": "Italia",
    "city": "Varese",
    "address": "Sede Consiglio Circoscrizione nr. 4, 21100",
    "location": "Altele\u00A0„Centro di incontri\u0022\u00A0",
    "latitude": 45.82088100000001,
    "longitude": 8.8185164
  },
  {
    "number": "414",
    "country": "Italia",
    "city": "Alessandria",
    "address": "Ex Circoscrizione Europista (Taglieria del Pelo) intrare din via Wagner 38/D, Alessandria (AL) CAP 15121",
    "location": "Altele",
    "latitude": 44.90558970000001,
    "longitude": 8.616395599999999
  },
  {
    "number": "415",
    "country": "Italia",
    "city": "Alba",
    "address": "Casa del Volontariato - Corso Europa nr. 45. Alba (CN) CAP 12051",
    "location": "Altele",
    "latitude": 44.692417,
    "longitude": 8.021008
  },
  {
    "number": "416",
    "country": "Italia",
    "city": "Asti",
    "address": "Piazza Altieri nr 33, Asti (AT) CAP 14100",
    "location": "Altele\u00A0Salone Consiliare (c/o palazzo della Provincia di Asti) ",
    "latitude": 44.900765,
    "longitude": 8.206434999999999
  },
  {
    "number": "417",
    "country": "Italia",
    "city": "Biella",
    "address": "Agora Palace Hotel, Sala Lamarmora, Via Alfonso Lamarmora nr. 13A, Biella (BI) CAP 13900",
    "location": "Altele",
    "latitude": 45.56169999999999,
    "longitude": 8.055999999999999
  },
  {
    "number": "418",
    "country": "Italia",
    "city": "Carmagnola",
    "address": "Salone Fieristico di Viale Garibaldi, n. 25/27. Carmagnola (TO) CAP 10022",
    "location": "Altele",
    "latitude": 44.8467697,
    "longitude": 7.7172544
  },
  {
    "number": "419",
    "country": "Italia",
    "city": "Cirie",
    "address": "Sala conferenze, Centro Socio Culturale di Corso Nazioni Unite nr. 32, Cirie (TO) CAP 10073",
    "location": "Altele",
    "latitude": 45.2357766,
    "longitude": 7.6069486
  },
  {
    "number": "420",
    "country": "Italia",
    "city": "Chieri",
    "address": "sala d\u0027aspetto Ufficio tributti nel Municipio, Via Palazzo di Cittâ nr. 10, Chieri (TO) CAP10023",
    "location": "Altele",
    "latitude": 45.0128944,
    "longitude": 7.8216838
  },
  {
    "number": "421",
    "country": "Italia",
    "city": "Chivaso",
    "address": "Centro d\u0027Incontro Comunale \u0022Felice Donato\u0022, Via Paleologi, n. 25, Chivasso (TO) CAP 10034",
    "location": "Altele",
    "latitude": 45.1921342,
    "longitude": 7.882960300000001
  },