[
  {
    "number": 1,
    "country": "Africa de Sud",
    "city": "Pretoria",
    "address": "877 Justice Mahomed Street, Brooklyn, 0181, Pretoria",
    "location": "Ambasadă",
    "latitude": -25.7670768,
    "longitude": 28.23457711
  },
  {
    "number": 2,
    "country": "Africa de Sud",
    "city": "Cape Town",
    "address": "24 Highwick Drive, 7708, Kenilworth, Cape Town",
    "location": "Consulat General",
    "latitude": -33.99173,
    "longitude": 18.46149
  },
  {
    "number": 3,
    "country": "Republica Albania",
    "city": "Tirana",
    "address": "Rruga E Elbasanit, nr.303, Sauk, cod poștal 1044",
    "location": "Ambasadă",
    "latitude": 41.30640544,
    "longitude": 19.84202563
  },
  {
    "number": 4,
    "country": "Algeria",
    "city": "Alger",
    "address": "24, rue Abri Arezki, Hydra, Alger",
    "location": "Ambasadă",
    "latitude": 36.74566941,
    "longitude": 3.038254288
  },
  {
    "number": 5,
    "country": "Angola",
    "city": "Luanda",
    "address": "Rua Ramalho Ortigão, nr. 30, Bairro Alvalade, Luanda ",
    "location": "Ambasadă",
    "latitude": -8.829127356,
    "longitude": 13.2355348
  },
  {
    "number": 6,
    "country": "Regatul Arabiei Saudite",
    "city": "Riyadh",
    "address": "2747 Amin Ar Rihany St., King Fahd District, Unit no. 1, Building no. 2747, Riyadh , Zip Code 12273 -Additional no. 7442",
    "location": "Ambasadă",
    "latitude": 24.74226926,
    "longitude": 46.66578567
  },
  {
    "number": 7,
    "country": "Argentina",
    "city": "Buenos Aires",
    "address": "Calle Arroyo, nr. 962-970, cod poștal 1007AAD, Orașul Autonom Buenos Aires ",
    "location": "Ambasadă",
    "latitude": -34.59170935,
    "longitude": -58.38094083
  },
  {
    "number": 8,
    "country": "Armenia",
    "city": "Erevan",
    "address": "Strada Barbusse, nr. 15, cartier Arabkir, cod poștal  0028, Erevan",
    "location": "Ambasadă",
    "latitude": 40.1972727,
    "longitude": 44.48660739
  },
  {
    "number": 9,
    "country": "Australia",
    "city": "Canberra",
    "address": "4 Dalman Crescent, O'Malley, ACT, 2606",
    "location": "Ambasadă",
    "latitude": -35.35025747,
    "longitude": 149.108693
  },
  {
    "number": 10,
    "country": "Australia",
    "city": "Melbourne",
    "address": "Camera 10.01A, Etaj 10, 5 Queens Road, Melbourne VIC 3004",
    "location": "Consulat",
    "latitude": -37.83699614,
    "longitude": 144.9740288
  },
  {
    "number": 11,
    "country": "Australia",
    "city": "Adelaide",
    "address": "32/34 Rosa St, Goodwood SA 5034",
    "location": "Altele",
    "latitude": -34.95098,
    "longitude": 138.59059
  },
  {
    "number": 12,
    "country": "Australia",
    "city": "Perth",
    "address": "8 Balga Ave, Balga WA 6061",
    "location": "Altele",
    "latitude": -31.85622384,
    "longitude": 115.8390481
  },
  {
    "number": 13,
    "country": "Noua Zeelandă",
    "city": "Auckland",
    "address": "Etaj 16, 56 Wakefield Street, Auckland CBD, Auckland 1010",
    "location": "Altele",
    "latitude": -36.85421309,
    "longitude": 174.7654941
  },
  {
    "number": 14,
    "country": "Australia",
    "city": "Sydney",
    "address": "Suite 4, G-F/83 York Street, CBD, Sydney, NSW, 2000",
    "location": "Consulat General",
    "latitude": -33.86947544,
    "longitude": 151.2058437
  },
  {
    "number": 15,
    "country": "Australia",
    "city": "Surfers Paradise",
    "address": "1-2/66 Appel Street, Surfers Paradise, Gold Coast, QLD, 4217",
    "location": "Altele",
    "latitude": -28.00435317,
    "longitude": 153.4281478
  },
  {
    "number": 16,
    "country": "Austria",
    "city": "Viena 1",
    "address": "Prinz Eugen Strasse 60, 1040, Viena",
    "location": "Ambasadă",
    "latitude": 48.19081421,
    "longitude": 16.37963719
  },
  {
    "number": 17,
    "country": "Austria",
    "city": "Viena 2",
    "address": "Prinz Eugen Strasse 60, 1040, Viena",
    "location": "Ambasadă",
    "latitude": 48.19081421,
    "longitude": 16.37963719
  },
  {
    "number": 18,
    "country": "Austria",
    "city": "Viena 3",
    "address": "Theresianumgasse 25, 1040, Viena",
    "location": "Consulat",
    "latitude": 48.19155183,
    "longitude": 16.37377812
  },
  {
    "number": 19,
    "country": "Austria",
    "city": "Viena 4",
    "address": "Argentinierstrasse 39, 1040, Viena",
    "location": "ICR",
    "latitude": 48.19184358,
    "longitude": 16.37497311
  },
  {
    "number": 20,
    "country": "Austria",
    "city": "Viena 5",
    "address": "Argentinierstrasse 39, 1040, Viena",
    "location": "ICR",
    "latitude": 48.19184358,
    "longitude": 16.37497311
  },
  {
    "number": 21,
    "country": "Austria",
    "city": "Viena 6",
    "address": "Gasometer Spielraum - Guglgasse 8/Gasometer B, 1100, Viena",
    "location": "Altele",
    "latitude": 48.18552556,
    "longitude": 16.41946987
  },
  {
    "number": 22,
    "country": "Austria",
    "city": "Graz 1",
    "address": "IntercityHotel - Finkengasse 2, 8020, Graz",
    "location": "Altele",
    "latitude": 47.07086,
    "longitude": 15.41806
  },
  {
    "number": 23,
    "country": "Austria",
    "city": "Graz 2",
    "address": "IntercityHotel - Finkengasse 2, 8020, Graz",
    "location": "Altele",
    "latitude": 47.07086,
    "longitude": 15.41806
  },
  {
    "number": 24,
    "country": "Austria",
    "city": "Eisenstadt",
    "address": "Hotel Galantha - Esterhazyplatz 3, 7000, Eisenstadt",
    "location": "Altele",
    "latitude": 47.84522683,
    "longitude": 16.51905163
  },
  {
    "number": 25,
    "country": "Austria",
    "city": "Sankt Pölten",
    "address": "Haus 17A, E01, Landhausplatz 1, 3100, Sankt Pölten",
    "location": "Altele",
    "latitude": 48.2021025,
    "longitude": 15.63328937
  },
  {
    "number": 26,
    "country": "Austria",
    "city": "Salzburg 1",
    "address": "Rudolfskai 50, 5020 Salzburg",
    "location": "Consulat General",
    "latitude": 47.79793361,
    "longitude": 13.05214825
  },
  {
    "number": 27,
    "country": "Austria",
    "city": "Salzburg 2",
    "address": "Rudolfskai 50, 5020 Salzburg",
    "location": "Consulat General",
    "latitude": 47.79793361,
    "longitude": 13.05214825
  },
  {
    "number": 28,
    "country": "Austria",
    "city": "Bregenz",
    "address": "Grand Hotel, Platz der Wiener Symphoniker 2, 6900 Bregenz",
    "location": "Altele",
    "latitude": 47.50345055,
    "longitude": 9.738452736
  },
  {
    "number": 29,
    "country": "Austria",
    "city": "Innsbruck",
    "address": "Hotel Congress, Rennweg 12a, 6020 Innsbruck",
    "location": "Altele",
    "latitude": 47.27466924,
    "longitude": 11.3974969
  },
  {
    "number": 30,
    "country": "Austria",
    "city": "Klagenfurt",
    "address": "SW Umwelttechnik, Stoiser & Wolschner AG, Bahnstraße 89 9020 Klagenfurt",
    "location": "Altele",
    "latitude": 46.6298622,
    "longitude": 14.33274602
  },
  {
    "number": 31,
    "country": "Austria",
    "city": "Linz 1",
    "address": "Bischöfliches Priesterseminar der Diözese Linz, Harrachstraße 7, 4020 Linz",
    "location": "Altele",
    "latitude": 48.30289369,
    "longitude": 14.29256843
  },
  {
    "number": 32,
    "country": "Austria",
    "city": "Linz 2",
    "address": "Bischöfliches Priesterseminar der Diözese Linz, Harrachstraße 7, 4020 Linz",
    "location": "Altele",
    "latitude": 48.30289369,
    "longitude": 14.29256843
  },
  {
    "number": 33,
    "country": "Azerbaidjan",
    "city": "Baku",
    "address": "B-dul Akad. Hasan Aliyev, nr. 125 A (Narimanov), cod AZ1110 Baku",
    "location": "Ambasadă",
    "latitude": 40.40388358,
    "longitude": 49.85501575
  },
  {
    "number": 34,
    "country": "Republica Belarus",
    "city": "Minsk",
    "address": "Kaliningradski pereulok nr. 12, cod 220012, Minsk",
    "location": "Ambasadă",
    "latitude": 53.92717554,
    "longitude": 27.59896704
  },
  {
    "number": 35,
    "country": "Belgia",
    "city": "Bruxelles 1",
    "address": "Rue Gabrielle 105, 1180 Uccle",
    "location": "Ambasadă",
    "latitude": 50.8125726,
    "longitude": 4.359936138
  },
  {
    "number": 36,
    "country": "Belgia",
    "city": "Bruxelles 2",
    "address": "Boulevard du Regent 47-48, 1000 Bruxelles",
    "location": "Secție Consulară",
    "latitude": 50.84738578,
    "longitude": 4.368807374
  },
  {
    "number": 37,
    "country": "Belgia",
    "city": "Bruxelles 3",
    "address": "Boulevard du Regent 47-48, 1000 Bruxelles",
    "location": "Secție Consulară",
    "latitude": 50.84738578,
    "longitude": 4.368807374
  },
  {
    "number": 38,
    "country": "Belgia",
    "city": "Bruxelles 4",
    "address": "Rue Gabrielle 107, 1180 Uccle",
    "location": "ICR",
    "latitude": 50.81227252,
    "longitude": 4.359968821
  },
  {
    "number": 39,
    "country": "Belgia",
    "city": "Bruxelles 5",
    "address": "Avenue de Cortenbergh nr. 107, 1000 Bruxelles",
    "location": "Reprezentanță Permanentă",
    "latitude": 50.84521867,
    "longitude": 4.390824132
  },
  {
    "number": 40,
    "country": "Belgia",
    "city": "Bruxelles 6",
    "address": "Tour & Taxis - Rue Picard 7, Gare Maritime, 1000 Bruxelles",
    "location": "Altele",
    "latitude": 50.8644464,
    "longitude": 4.345371616
  },
  {
    "number": 41,
    "country": "Belgia",
    "city": "Bruxelles 7",
    "address": "Tour & Taxis - Rue Picard 7, Gare Maritime, 1000 Bruxelles",
    "location": "Altele",
    "latitude": 50.8644464,
    "longitude": 4.345371616
  },
  {
    "number": 42,
    "country": "Belgia",
    "city": "Bruxelles 8",
    "address": "Tour & Taxis - Rue Picard 7, Gare Maritime, 1000 Bruxelles",
    "location": "Altele",
    "latitude": 50.8644464,
    "longitude": 4.345371616
  },
  {
    "number": 43,
    "country": "Belgia",
    "city": "Bruxelles 9",
    "address": "Autoworld Brussels, Parc du Cinquantenaire 11, Jubelpark, 1000 Bruxelles",
    "location": "Altele",
    "latitude": 50.83924507,
    "longitude": 4.393417909
  },
  {
    "number": 44,
    "country": "Belgia",
    "city": "Bruxelles 10",
    "address": "Autoworld Brussels, Parc du Cinquantenaire 11, Jubelpark, 1000 Bruxelles",
    "location": "Altele",
    "latitude": 50.83924507,
    "longitude": 4.393417909
  },
  {
    "number": 45,
    "country": "Belgia",
    "city": "Bruxelles 11",
    "address": "Autoworld Brussels, Parc du Cinquantenaire 11, Jubelpark, 1000 Bruxelles",
    "location": "Altele",
    "latitude": 50.83924507,
    "longitude": 4.393417909
  },
  {
    "number": 46,
    "country": "Belgia",
    "city": "Bruxelles 12",
    "address": "Autoworld Brussels, Parc du Cinquantenaire 11, Jubelpark, 1000 Bruxelles",
    "location": "Altele",
    "latitude": 50.83924507,
    "longitude": 4.393417909
  },
  {
    "number": 47,
    "country": "Belgia",
    "city": "Antwerpen 1",
    "address": "Blue Point Antwerpen, Filip Williotstraat 9, 2600 Antwerpen",
    "location": "Altele",
    "latitude": 50.85112278,
    "longitude": 4.401889509
  },
  {
    "number": 48,
    "country": "Belgia",
    "city": "Antwerpen 2",
    "address": "Blue Point Antwerpen, Filip Williotstraat 9, 2600 Antwerpen",
    "location": "Altele",
    "latitude": 50.85112278,
    "longitude": 4.401889509
  },
  {
    "number": 49,
    "country": "Belgia",
    "city": "Arlon",
    "address": "Rue du Musee 10, 6700 Arlon",
    "location": "Altele",
    "latitude": 49.68518345,
    "longitude": 5.81164827
  },
  {
    "number": 50,
    "country": "Belgia",
    "city": "Bruges 1",
    "address": "Library Zorge, Moerkerkse Steenweg 190, Bruges 8310",
    "location": "Altele",
    "latitude": 51.21438311,
    "longitude": 3.249317465
  },
  {
    "number": 51,
    "country": "Belgia",
    "city": "Bruges 2",
    "address": "Library Zorge, Moerkerkse Steenweg 190, Bruges 8310",
    "location": "Altele",
    "latitude": 51.21438311,
    "longitude": 3.249317465
  },
  {
    "number": 52,
    "country": "Belgia",
    "city": "Charleroi",
    "address": "Centre Espace Meeting Charleroi (CEME), Rue des Français 147, 6020 Charleroi",
    "location": "Altele",
    "latitude": 50.42282762,
    "longitude": 4.432888629
  },
  {
    "number": 53,
    "country": "Belgia",
    "city": "Geel",
    "address": "Stelen 77, 2440 Geel",
    "location": "Altele",
    "latitude": 51.12601502,
    "longitude": 4.970874947
  },
  {
    "number": 54,
    "country": "Belgia",
    "city": "Ghent",
    "address": "Kinepolis Gent, Ter Platen 12, 9000 Ghent  ",
    "location": "Altele",
    "latitude": 51.04054742,
    "longitude": 3.729977532
  },
  {
    "number": 55,
    "country": "Belgia",
    "city": "Hasselt",
    "address": "Het Volkstehuis, Kempische Kaai 11, 3500 Hasselt",
    "location": "Altele",
    "latitude": 50.93514375,
    "longitude": 5.338362221
  },
  {
    "number": 56,
    "country": "Belgia",
    "city": "Liege 1",
    "address": "Palais des Congrès de Liège, Esplanade de l'Europe 2/B, 4020 Liege",
    "location": "Altele",
    "latitude": 50.63085527,
    "longitude": 5.574200254
  },
  {
    "number": 57,
    "country": "Belgia",
    "city": "Liege 2",
    "address": "Palais des Congrès de Liège, Esplanade de l'Europe 2/B, 4020 Liege",
    "location": "Altele",
    "latitude": 50.63085527,
    "longitude": 5.574200254
  },
  {
    "number": 58,
    "country": "Belgia",
    "city": "Mons",
    "address": "Lotto Mons Expo, Avenue Thomas Edison 2, 7000 Mons",
    "location": "Altele",
    "latitude": 50.4581637,
    "longitude": 3.937489038
  },
  {
    "number": 59,
    "country": "Belgia",
    "city": "Namur",
    "address": "Auditorium Berthe POULEUR, Avenue Jean Materne 162, 5100 Namur",
    "location": "Altele",
    "latitude": 50.4558104,
    "longitude": 4.872603198
  },
  {
    "number": 60,
    "country": "Belgia",
    "city": "Roeselare 1",
    "address": "Beverhuys VZV Isegemseaardeweg 30, 8800 Beveren Roeselare",
    "location": "Altele",
    "latitude": 50.96651894,
    "longitude": 3.145033615
  },
  {
    "number": 61,
    "country": "Belgia",
    "city": "Roeselare 2",
    "address": "Beverhuys VZV Isegemseaardeweg 30, 8800 Beveren Roeselare",
    "location": "Altele",
    "latitude": 50.96651894,
    "longitude": 3.145033615
  },
  {
    "number": 62,
    "country": "Belgia",
    "city": "Sint-Niklaas",
    "address": "Paterskerk, Truweelstraat 210, 9100 Sint-Niklaas",
    "location": "Altele",
    "latitude": 51.17208098,
    "longitude": 4.150264126
  },
  {
    "number": 63,
    "country": "Belgia",
    "city": "Turnhout",
    "address": "Campus Blairon 200, 2300 Turnhout",
    "location": "Altele",
    "latitude": 51.31601152,
    "longitude": 4.929876216
  },
  {
    "number": 64,
    "country": "Bosnia și Herțegovina",
    "city": "Sarajevo",
    "address": "Čobanija 28, 71000, Sarajevo",
    "location": "Ambasadă",
    "latitude": 43.8536274,
    "longitude": 18.42138006
  },
  {
    "number": 65,
    "country": "Brazilia",
    "city": "Brasilia",
    "address": "Sen, Avenida Das nacoes, Lote 6 Quadra 801, Asa Norte, 70800917",
    "location": "Ambasadă",
    "latitude": -15.78719175,
    "longitude": -47.86599876
  },
  {
    "number": 66,
    "country": "Brazilia",
    "city": "Ipora do Oeste",
    "address": "La Rua Sao Paulo 23, Bairro Centro 89899000",
    "location": "Altele",
    "latitude": -26.98554644,
    "longitude": -53.53296674
  },
  {
    "number": 67,
    "country": "Brazilia",
    "city": "Rio de Janeiro",
    "address": "Rua Cosme Velho, nr. 526, Rio de Janeiro, 22241-090",
    "location": "Consulat General",
    "latitude": -22.94010093,
    "longitude": -43.19870742
  },
  {
    "number": 68,
    "country": "Brazilia",
    "city": "São Paulo",
    "address": "Rua São Carlos do Pinhal, nr. 200, São Paulo, 01333-000",
    "location": "Altele",
    "latitude": -23.56501723,
    "longitude": -46.64952916
  },
  {
    "number": 69,
    "country": "Bulgaria",
    "city": "Sofia",
    "address": "Blvd. Mihai Eminescu nr. 4, Sofia, 1111",
    "location": "Ambasadă",
    "latitude": 42.68514093,
    "longitude": 23.35188131
  },
  {
    "number": 70,
    "country": "Canada",
    "city": "Ottawa",
    "address": "655 Rideau Street, Ottawa, ON, cod poștal K1N 6A3",
    "location": "Ambasadă",
    "latitude": 45.43392866,
    "longitude": -75.67386136
  },
  {
    "number": 71,
    "country": "Canada",
    "city": "Calgary",
    "address": "17 Millrise Dr. SW, Calgary, AB, cod poștal T2Y 0K7",
    "location": "Altele",
    "latitude": 50.9164727,
    "longitude": -114.0729143
  },
  {
    "number": 72,
    "country": "Canada",
    "city": "Dieppe",
    "address": "505 Melanson Rd., Dieppe, NB, cod poștal E1A 0K2",
    "location": "Altele",
    "latitude": 46.06790242,
    "longitude": -64.71281243
  },
  {
    "number": 73,
    "country": "Canada",
    "city": "Quebec",
    "address": "90 boul. des Etudiants, Quebec, QC, cod poștal G2A 1N5",
    "location": "Altele",
    "latitude": 46.85580671,
    "longitude": -71.36146245
  },
  {
    "number": 74,
    "country": "Canada",
    "city": "Toronto",
    "address": "789 Don Mills Rd., North York, Ontario, cod poștal M3C 1T5",
    "location": "Consulat General",
    "latitude": 43.71860696,
    "longitude": -79.3375942
  },
  {
    "number": 75,
    "country": "Canada",
    "city": "Hamilton",
    "address": "20 Murray St. W, Hamilton, Ontario, cod poștal L8L 1B2",
    "location": "Altele",
    "latitude": 43.26550001,
    "longitude": -79.86620102
  },
  {
    "number": 76,
    "country": "Canada",
    "city": "Kitchener",
    "address": "2188 Shirley Dr., Kitchener, Ontario, cod poștal N2B 0A6",
    "location": "Altele",
    "latitude": 43.47663479,
    "longitude": -80.43627447
  },
  {
    "number": 77,
    "country": "Canada",
    "city": "Windsor",
    "address": "1960 Tecumseh Rd. E., Windsor, Ontario, cod poștal N8W 1E1",
    "location": "Altele",
    "latitude": 42.30178449,
    "longitude": -82.99873197
  },
  {
    "number": 78,
    "country": "Canada",
    "city": "Winnipeg",
    "address": "103 Furby St., Winnipeg, Manitoba, cod poștal R3C 2A4",
    "location": "Altele",
    "latitude": 49.88199137,
    "longitude": -97.15791732
  },
  {
    "number": 79,
    "country": "Canada",
    "city": "Montreal 1",
    "address": "1010, Rue Sherbrooke, O, #610, Montreal, Quebec, H3A 2R7, et.6",
    "location": "Consulat General",
    "latitude": 45.50222863,
    "longitude": -73.57566128
  },
  {
    "number": 80,
    "country": "Canada",
    "city": "Montreal 2",
    "address": "1010, Rue Sherbrooke, O, # 1516, Montreal, Quebec, H3A 2R7-sala de conferințe, et.15",
    "location": "Altele ",
    "latitude": 45.50229993,
    "longitude": -73.57554232
  },
  {
    "number": 81,
    "country": "Canada",
    "city": "Vancouver",
    "address": "1165 - 555 Burrard Street, Vancouver, BC V7X 1M8",
    "location": "Consulat General",
    "latitude": 49.28637202,
    "longitude": -123.1190083
  },
  {
    "number": 82,
    "country": "Canada",
    "city": "Edmonton",
    "address": "9005 - 132 Avenue NW, Edmonton AB, T5E 0Y1",
    "location": "Altele ",
    "latitude": 53.59185566,
    "longitude": -113.4802318
  },
  {
    "number": 83,
    "country": "Republica Cehă",
    "city": "Praga 1",
    "address": "Strada Nerudova 5, Malá Strana, Praga 1, 11800",
    "location": "Ambasadă",
    "latitude": 50.08850482,
    "longitude": 14.40093461
  },
  {
    "number": 84,
    "country": "Republica Cehă",
    "city": "Praga 2",
    "address": "Strada Nerudova 5, Malá Strana, Praga 1, 11800",
    "location": "Ambasadă",
    "latitude": 50.08850482,
    "longitude": 14.40093461
  },
  {
    "number": 85,
    "country": "Republica Cehă",
    "city": "Praga 3",
    "address": "Strada Tržiště 20a, Malá Strana, Praga 1, 11800",
    "location": "Ambasadă",
    "latitude": 50.08850482,
    "longitude": 14.40093461
  },
  {
    "number": 86,
    "country": "Republica Chile",
    "city": "Santiago de Chile",
    "address": "Benjamin 2955, Las Condes, Regiunea Metropolitana, cod poștal 7550032",
    "location": "Ambasadă",
    "latitude": -33.41270307,
    "longitude": -70.60066305
  },
  {
    "number": 87,
    "country": "Republica Populară Chineză",
    "city": "Beijing",
    "address": "Str. Ritan Lu Dong Yi Jie, Districtul Chaoyang, Beijing, cod poștal 100600",
    "location": "Ambasadă",
    "latitude": 39.91589442,
    "longitude": 116.4471026
  },
  {
    "number": 88,
    "country": "Republica Populară Chineză",
    "city": "Hong Kong",
    "address": "03A Unit, 21 Floor, 148 Electric Road, North Point, Hong Kong",
    "location": "Consulat General",
    "latitude": 22.28644324,
    "longitude": 114.1917502
  },
  {
    "number": 89,
    "country": "Republica Populară Chineză",
    "city": "Shanghai",
    "address": "502 Room, Honi International Plaza, 199 Chengdu North Road, Jing An District, Shanghai, 200041",
    "location": "Consulat General",
    "latitude": 31.22741486,
    "longitude": 121.466796
  },
  {
    "number": 90,
    "country": "Republica Cipru",
    "city": "Nicosia 1",
    "address": "27 Pireos str., 2023 Strovolos",
    "location": "Ambasadă",
    "latitude": 35.14745139,
    "longitude": 33.35262992
  },
  {
    "number": 91,
    "country": "Republica Cipru",
    "city": "Nicosia 2",
    "address": "128 - 130 Limassol Avenue, 2015 Strovolos",
    "location": "Secție Consulară",
    "latitude": 35.1432706,
    "longitude": 33.37381678
  },
  {
    "number": 92,
    "country": "Republica Cipru",
    "city": "Larnaca",
    "address": "Med High Private English School, 10 Kilkis str., 6531 Larnaca",
    "location": "Altele",
    "latitude": 34.92675225,
    "longitude": 33.62951651
  },
  {
    "number": 93,
    "country": "Republica Cipru",
    "city": "Limassol",
    "address": "Lophitis Business Center, 28 October Avenue 249-I, Ground floor, 3035 Limassol ",
    "location": "Altele",
    "latitude": 34.67891096,
    "longitude": 33.05134527
  },
  {
    "number": 94,
    "country": "Republica Cipru",
    "city": "Paphos",
    "address": "SEK, Eleftheriou Venizelou str., 8010 Paphos ",
    "location": "Altele",
    "latitude": 34.77652334,
    "longitude": 32.42242767
  },
  {
    "number": 95,
    "country": "Republica Cipru",
    "city": "Poli Chrysochous",
    "address": "Biserica Apostolos Andreas, 2CPH+C94, 8820 Poli Crysochous ",
    "location": "Altele",
    "latitude": 35.03379544,
    "longitude": 32.42734284
  },
  {
    "number": 96,
    "country": "Republica Cipru",
    "city": "Deryneia",
    "address": "Cultural Center,35 Evagorou  str., 5385 Deryneia ",
    "location": "Altele",
    "latitude": 35.06765148,
    "longitude": 33.95895006
  },
  {
    "number": 97,
    "country": "Republica Cipru",
    "city": "Agros",
    "address": "Scoala Gimnazială Apeitou, 44 Kyriacou Apeitou str., 4860 Agros",
    "location": "Altele",
    "latitude": 34.91633059,
    "longitude": 33.01443775
  },
  {
    "number": 98,
    "country": "R.Columbia",
    "city": "Bogota",
    "address": " Carrera 7 No. 92A-58, Chicó, Bogotá",
    "location": "Ambasadă",
    "latitude": 4.672319429,
    "longitude": -74.04309535
  },
  {
    "number": 99,
    "country": "Republica Coreea",
    "city": "Seoul",
    "address": "50 Jangmun-ro, Yongsan-gu, Seoul, 04393",
    "location": "Ambasadă",
    "latitude": 37.52703783,
    "longitude": 126.9953525
  },
  {
    "number": 100,
    "country": "Republica Croația",
    "city": "Zagreb",
    "address": "Mlinarska cesta 43, 10.000",
    "location": "Ambasadă",
    "latitude": 45.82779483,
    "longitude": 15.97750187
  },
  {
    "number": 101,
    "country": "Cuba",
    "city": "Havana",
    "address": "Ave. 5ta A, no. 4407, e/44 y 46, Miramar, mun. Playa, prov. Havana",
    "location": "Ambasadă",
    "latitude": 23.11380265,
    "longitude": -82.43079606
  },
  {
    "number": 102,
    "country": "Danemarca",
    "city": "Copenhaga 1 (Frederiksberg)",
    "address": "Institut français du Danemark, Rolighedsvej 37, 1958 Frederiksberg C, Copenhagen",
    "location": "Altele",
    "latitude": 55.68435233,
    "longitude": 12.54455727
  },
  {
    "number": 103,
    "country": "Danemarca",
    "city": "Copenhaga 2 (Valby)",
    "address": "3F Bygge-, Jord- og Miljøarbejdernes Fagforening, Mølle Allé 30, 2500 Valby, Copenhagen",
    "location": "Altele",
    "latitude": 55.66581401,
    "longitude": 12.51547174
  },
  {
    "number": 104,
    "country": "Danemarca",
    "city": "Taastrup",
    "address": "3F Høje-Taastrup, Pile Allé 18-20, 2630 Taastrup",
    "location": "Altele",
    "latitude": 55.64735017,
    "longitude": 12.29583957
  },
  {
    "number": 105,
    "country": "Danemarca",
    "city": "Hillerød",
    "address": "3F Frederiksborg, Milnersvej 41D, 3400 Hillerød",
    "location": "Altele",
    "latitude": 55.92044509,
    "longitude": 12.29515098
  },
  {
    "number": 106,
    "country": "Danemarca",
    "city": "Ringsted",
    "address": "3F Midt & Østsjælland, Vibevej 12, 4100 Ringsted",
    "location": "Altele",
    "latitude": 55.44186553,
    "longitude": 11.80176936
  },
  {
    "number": 107,
    "country": "Danemarca",
    "city": "Odense",
    "address": "Hotel Knudsens Gaard, Hunderupgade 2, 5230 Odense M",
    "location": "Altele",
    "latitude": 55.38142063,
    "longitude": 10.39458547
  },
  {
    "number": 108,
    "country": "Danemarca",
    "city": "Aabenraa",
    "address": "Hjordkær Forsamlingshus,  Aabenraavej 10, 6230 Rødekro",
    "location": "Altele",
    "latitude": 55.02320204,
    "longitude": 9.309033211
  },
  {
    "number": 109,
    "country": "Danemarca",
    "city": "Esbjerg",
    "address": "3F Esbjerg Transport, Nyhavnsgade 25, 6700, Esbjerg",
    "location": "Altele",
    "latitude": 55.47293996,
    "longitude": 8.432965314
  },
  {
    "number": 110,
    "country": "Danemarca",
    "city": "Vejle",
    "address": "3F Vejle, Sjællandsgade 30, 7100 Vejle",
    "location": "Altele",
    "latitude": 55.70405275,
    "longitude": 9.5440994
  },
  {
    "number": 111,
    "country": "Danemarca",
    "city": "Ringkøbing",
    "address": "3F Ringkøbing-Skjern, Byskellet 33, 6950 Ringkøbing",
    "location": "Altele",
    "latitude": 56.08954639,
    "longitude": 8.258841299
  },
  {
    "number": 112,
    "country": "Danemarca",
    "city": "Aarhus",
    "address": "3F Aarhus Rymarken, Rymarken 4, 8210 Aarhus",
    "location": "Altele",
    "latitude": 56.16795721,
    "longitude": 10.152871
  },
  {
    "number": 113,
    "country": "Danemarca",
    "city": "Skive",
    "address": "Frivilligcenter,  Søndergade 16C, 7800 Skive ",
    "location": "Altele",
    "latitude": 56.56164558,
    "longitude": 9.025966553
  },
  {
    "number": 114,
    "country": "Danemarca",
    "city": "Aalborg",
    "address": "3F Aalborg, Hadsundvej 184, 9000 Aalborg",
    "location": "Altele",
    "latitude": 57.02466748,
    "longitude": 9.96012515
  },
  {
    "number": 115,
    "country": "Danemarca",
    "city": "Herning",
    "address": "Østergaards Hotel, Silkeborgvej 94, 7400 Herning",
    "location": "Altele",
    "latitude": 56.13417049,
    "longitude": 8.996331884
  },
  {
    "number": 116,
    "country": "Islanda",
    "city": "Reykjavik",
    "address": "Fosshotel Reykjavík Þórunnartún 1, 105 Reykjavík",
    "location": "Altele",
    "latitude": 64.14439128,
    "longitude": -21.90963744
  },
  {
    "number": 117,
    "country": "Egipt",
    "city": "Cairo",
    "address": "6 Al Kamel Mohammed, Al Gabalayah, Zamalek, cod poștal 4270122, Cairo",
    "location": "Ambasadă",
    "latitude": 30.05883094,
    "longitude": 31.21905063
  },
  {
    "number": 118,
    "country": "Elveția",
    "city": "Geneva",
    "address": "Rue Vermont 37 - 39, 1202 Geneva",
    "location": "Altele",
    "latitude": 46.21884886,
    "longitude": 6.137177788
  },
  {
    "number": 119,
    "country": "Elveția",
    "city": "Cologny",
    "address": "Chemin de la Perriere 6, 1223 Cologny",
    "location": "Misiune Permanentă",
    "latitude": 46.22705424,
    "longitude": 6.186390967
  },
  {
    "number": 120,
    "country": "Elveția",
    "city": "Berna",
    "address": "Parohia ortodoxă română Sf. M. Mc. Gheorghe, Kastellweg 7, 3004 Bern",
    "location": "Altele",
    "latitude": 46.9738857,
    "longitude": 7.450976072
  },
  {
    "number": 121,
    "country": "Elveția",
    "city": "Basel",
    "address": "memox.world | Basel City, Elisabethenstrasse 15, 4051 Basel",
    "location": "Altele",
    "latitude": 46.55262598,
    "longitude": 6.57229809
  },
  {
    "number": 122,
    "country": "Elveția",
    "city": "Bellinzona",
    "address": "Spazio Aperto, Via Gerretta 9a, 6500 Bellinzona",
    "location": "Altele",
    "latitude": 47.55294432,
    "longitude": 7.591781452
  },
  {
    "number": 123,
    "country": "Elveția",
    "city": "Lausanne",
    "address": "IBIS Lausanne Crissier, Chem. de l'Esparcette 4, 1023 Lausanne",
    "location": "Altele",
    "latitude": 46.20109617,
    "longitude": 9.030292689
  },
  {
    "number": 124,
    "country": "Elveția",
    "city": "Zürich 1",
    "address": "Holiday Inn Zürich Messe, Wallisellenstrasse 48, 8050 Zürich",
    "location": "Altele",
    "latitude": 47.41052447,
    "longitude": 8.552956756
  },
  {
    "number": 125,
    "country": "Elveția",
    "city": "Zürich 2",
    "address": "Hilton Garden Inn Zürich Limmattal, Kreuzäckerstrasse 5, 8957 Spreitenbach",
    "location": "Altele",
    "latitude": 47.41784786,
    "longitude": 8.377819565
  },
  {
    "number": 126,
    "country": "Emiratele Arabe Unite",
    "city": "Abu Dhabi ",
    "address": "Abu Al Abyad street, villa nr.15, Al Bateen area, cod poștal 70416, Abu Dhabi",
    "location": "Ambasadă",
    "latitude": 24.46053276,
    "longitude": 54.34863438
  },
  {
    "number": 127,
    "country": "Emiratele Arabe Unite",
    "city": "Dubai 1",
    "address": "Al Safa 2, str. 16A, villa 8",
    "location": "Consulat General",
    "latitude": 25.16459698,
    "longitude": 55.23217688
  },
  {
    "number": 128,
    "country": "Emiratele Arabe Unite",
    "city": "Dubai 2",
    "address": "Dubai World Trade Center, sala Al Ain, Sheikh Zayed Road",
    "location": "Altele",
    "latitude": 25.2232903,
    "longitude": 55.28683216
  },
  {
    "number": 129,
    "country": "Estonia",
    "city": "Tallinn",
    "address": "Ravala puiestee 5, etaj 5, 10143",
    "location": "Ambasadă",
    "latitude": 59.43359938,
    "longitude": 24.75706011
  },
  {
    "number": 130,
    "country": "Etiopia",
    "city": "Addis Abeba",
    "address": "Kirkos subcity, Woreda 04, House no. 1142, P.O. box 2478",
    "location": "Ambasadă",
    "latitude": 8.98653888,
    "longitude": 38.77096517
  },
  {
    "number": 131,
    "country": "Filipine",
    "city": "Manila",
    "address": "strada Legaspi nr.150, G.C.Corporate Plaza, et.6, unit 601-602, Legaspi Village, Makati, cod poștal 1229",
    "location": "Ambasadă",
    "latitude": 14.55654229,
    "longitude": 121.0164117
  },
  {
    "number": 132,
    "country": "Finlanda",
    "city": "Helsinki",
    "address": "Stenbäckinkatu 24, 00250 ",
    "location": "Ambasadă",
    "latitude": 60.18648936,
    "longitude": 24.91008198
  },
  {
    "number": 133,
    "country": "Finlanda",
    "city": "Mariehamn",
    "address": "Norragatan 10A, 22100",
    "location": "Altele",
    "latitude": 60.09885498,
    "longitude": 19.9387616
  },
  {
    "number": 134,
    "country": "Finlanda",
    "city": "Tampere",
    "address": "Solo Sokos Hotel Torni, Ratapihankatu 43, 33100",
    "location": "Altele",
    "latitude": 61.49699334,
    "longitude": 23.77520872
  },
  {
    "number": 135,
    "country": "Finlanda",
    "city": "Turku",
    "address": "Yliopistonkatu 19, 20100",
    "location": "Altele",
    "latitude": 61.49830124,
    "longitude": 23.7713021
  },
  {
    "number": 136,
    "country": "Franța",
    "city": "Paris 1",
    "address": "123 Rue Saint-Dominique, 75007 Paris ",
    "location": "Ambasadă ",
    "latitude": 48.85857,
    "longitude": 2.30296
  },
  {
    "number": 137,
    "country": "Franța",
    "city": "Paris 2",
    "address": "123 Rue Saint-Dominique,75007 Paris ",
    "location": "Ambasadă ",
    "latitude": 48.85842,
    "longitude": 2.30293
  },
  {
    "number": 138,
    "country": "Franța",
    "city": "Paris 3",
    "address": "3 Rue de l'Exposition, 75007 Paris",
    "location": "Consulat General ",
    "latitude": 48.85857861,
    "longitude": 2.302984969
  },
  {
    "number": 139,
    "country": "Franța",
    "city": "Paris 4",
    "address": "1 Rue de l'Exposition, 75007 Paris ",
    "location": "ICR",
    "latitude": 48.85799025,
    "longitude": 2.303007922
  },
  {
    "number": 140,
    "country": "Franța",
    "city": "Paris 5",
    "address": "1 Rue de l'Exposition, 75007 Paris ",
    "location": "ICR",
    "latitude": 48.85799025,
    "longitude": 2.303007922
  },
  {
    "number": 141,
    "country": "Franța",
    "city": "Rungis",
    "address": "Mercure Paris Orly Rungis Aéroport,  20 Avenue Charles Lindbergh, 94656 Rungis",
    "location": " Altele",
    "latitude": 48.75680593,
    "longitude": 2.346334613
  },
  {
    "number": 142,
    "country": "Franța",
    "city": "Issy-les-Moulineaux",
    "address": "Agora, Salle Saint-Lazare 2, 18 rue Aristide Briand, 92130 Issy-les-Moulineaux",
    "location": " Altele",
    "latitude": 48.82048427,
    "longitude": 2.255362367
  },
  {
    "number": 143,
    "country": "Franța",
    "city": "Rueil-Malmaison ",
    "address": "Novotel Paris Rueil-Malmaison, 21 Avenue Edouard Belin, 92500 Rueil-Malmaison",
    "location": " Altele",
    "latitude": 48.88815975,
    "longitude": 2.168246994
  },
  {
    "number": 144,
    "country": "Franța",
    "city": "Drancy",
    "address": "Salle Paul Vaillant Couturier, 27 Rue Roger Petieu - bâtiment C - ESC F, 93700 Drancy",
    "location": "Altele",
    "latitude": 48.92334484,
    "longitude": 2.448113498
  },
  {
    "number": 145,
    "country": "Franța",
    "city": "La Courneuve",
    "address": "Salle Philippe Roux, 58 rue de la Convention, 93120 La Courneuve",
    "location": "Altele",
    "latitude": 48.91692857,
    "longitude": 2.456805574
  },
  {
    "number": 146,
    "country": "Franța",
    "city": "Le Blanc-Mesnil 1",
    "address": "Centre Technique Municipal,  2 Avenue Albert Einstein, 93150 Le Blanc-Mesnil",
    "location": "Altele",
    "latitude": 48.92703754,
    "longitude": 2.392789745
  },
  {
    "number": 147,
    "country": "Franța",
    "city": "Le Blanc-Mesnil 2",
    "address": "Centre Technique Municipal,  2 Avenue Albert Einstein, 93150 Le Blanc-Mesnil",
    "location": "Altele",
    "latitude": 48.92703754,
    "longitude": 2.392789745
  },
  {
    "number": 148,
    "country": "Franța",
    "city": "Le Blanc-Mesnil 3",
    "address": "Centre Technique Municipal,  2 Avenue Albert Einstein, 93150 Le Blanc-Mesnil",
    "location": "Altele",
    "latitude": 48.92703754,
    "longitude": 2.392789745
  },
  {
    "number": 149,
    "country": "Franța",
    "city": "Montreuil 1",
    "address": "Sala Centrului cultural Ștefan cel Mare - 27 Rue de Roches, 93100 Montreuil",
    "location": "Altele",
    "latitude": 48.94731039,
    "longitude": 2.467610294
  },
  {
    "number": 150,
    "country": "Franța",
    "city": "Montreuil 2",
    "address": "Salle Franklin, 60 rue Franklin, 93100 Montreuil ",
    "location": "Altele",
    "latitude": 48.86347363,
    "longitude": 2.444303821
  },
  {
    "number": 151,
    "country": "Franța",
    "city": "Pantin 1",
    "address": "PLATAN - 62 Rue Denis Papin, 93500 Pantin",
    "location": "Altele",
    "latitude": 48.90421056,
    "longitude": 2.400528454
  },
  {
    "number": 152,
    "country": "Franța",
    "city": "Pantin 2",
    "address": "PLATAN - 62 Rue Denis Papin, 93500 Pantin",
    "location": "Altele",
    "latitude": 48.90421056,
    "longitude": 2.400528454
  },
  {
    "number": 153,
    "country": "Franța",
    "city": "Bry-sur-Marne",
    "address": "31-33 rue des Clotais, 94360 Bry-sur-Marne",
    "location": "Altele",
    "latitude": 48.89025295,
    "longitude": 2.403307956
  },
  {
    "number": 154,
    "country": "Franța",
    "city": "Melun ",
    "address": "Maison des Associations Jean XXIII, 27 Rue Edmond Michelet, 77000 Melun",
    "location": "Altele",
    "latitude": 48.54920882,
    "longitude": 2.653244711
  },
  {
    "number": 155,
    "country": "Franța",
    "city": "Brest",
    "address": "Salle Pierre Corre, 8 rue Pierre Corre, 29200 Brest",
    "location": "Altele",
    "latitude": 48.41401468,
    "longitude": -4.492611492
  },
  {
    "number": 156,
    "country": "Franța",
    "city": "Trappes",
    "address": "Maison de la Boissière, 28 Rue du Centre, 78190 Trappes ",
    "location": "Altele",
    "latitude": 48.77132,
    "longitude": 1.98045
  },
  {
    "number": 157,
    "country": "Franța",
    "city": "Le Mans ",
    "address": "Maison de quartier Jean Ferrat, 115 Rue des Sablons, 72100 Le Mans",
    "location": "Altele",
    "latitude": 48.39096246,
    "longitude": -4.490346077
  },
  {
    "number": 158,
    "country": "Franța",
    "city": "Calais ",
    "address": "Salle Municipale Paul Caron, 2 Rue du Général Margueritte, 62100 Calais",
    "location": "Altele",
    "latitude": 48.77133002,
    "longitude": 1.980455258
  },
  {
    "number": 159,
    "country": "Franța",
    "city": "Bordeaux",
    "address": "Salle Municipale Quintin Loucheur, 96 rue de la Béchade, 33000 Bordeaux ",
    "location": "Altele",
    "latitude": 47.98890088,
    "longitude": 0.2144601097
  },
  {
    "number": 160,
    "country": "Franța",
    "city": "Pessac",
    "address": "Salle de la Fraternité,  7 Avenue Louis Laugaa, 33600 Pessac",
    "location": "Altele",
    "latitude": 44.80569462,
    "longitude": -0.6290135684
  },
  {
    "number": 161,
    "country": "Franța",
    "city": "Caen",
    "address": "Salle de la Grâce de Dieu, 4 Place du Commerce, 14000 Caen",
    "location": "Altele",
    "latitude": 44.8237026,
    "longitude": -0.599851066
  },
  {
    "number": 162,
    "country": "Franța",
    "city": "Lille 1",
    "address": "Conseil Régional Hauts-de-France, 151 Av. du Président Hoover, 59800 Lille",
    "location": "Altele",
    "latitude": 50.62915075,
    "longitude": 3.07853469
  },
  {
    "number": 163,
    "country": "Franța",
    "city": "Lille 2",
    "address": "Conseil Régional Hauts-de-France, 151 Av. du Président Hoover, 59800 Lille",
    "location": "Altele",
    "latitude": 50.62915075,
    "longitude": 3.07853469
  },
  {
    "number": 164,
    "country": "Franța",
    "city": "Loudéac",
    "address": "Bâtiment la Providence, Salle n° 3, 36 Rue de Moncontour, 22600, Loudéac ",
    "location": "Altele",
    "latitude": 50.6347318,
    "longitude": 3.080794793
  },
  {
    "number": 165,
    "country": "Franța",
    "city": "Rennes",
    "address": "Le Triangle- Cité de la danse, Boulevard de Yougoslavie, 35201 Rennes",
    "location": "Altele",
    "latitude": 48.08860713,
    "longitude": -1.659410961
  },
  {
    "number": 166,
    "country": "Franța",
    "city": "Nantes 1 ",
    "address": "Maison de l'Europe, Salle Agora, 90 Boulevard de la Prairie au Duc, 44200 Nantes",
    "location": "Altele",
    "latitude": 47.20399552,
    "longitude": -1.568410375
  },
  {
    "number": 167,
    "country": "Franța",
    "city": "Nantes 2",
    "address": "Centre d'affaires Nuage B Nantes, Immeuble Kanoa, 6 Rue René Viviani, 44200 Nantes",
    "location": "Altele",
    "latitude": 47.20749461,
    "longitude": -1.536191268
  },
  {
    "number": 168,
    "country": "Franța",
    "city": "Troyes",
    "address": "Maison de Quartier des Marots, Salle Les Maraux de Pouilly, 23 rue Trouvassot, 10000 Troyes  ",
    "location": "Altele",
    "latitude": 48.30784734,
    "longitude": 4.04976961
  },
  {
    "number": 169,
    "country": "Franța",
    "city": "Aulnay-sous-Bois",
    "address": "Foyer Dumont, 12 Boulevard Gallieni, 93600 Aulnay-sous-Bois",
    "location": "Altele",
    "latitude": 47.20433898,
    "longitude": -1.55999302
  },
  {
    "number": 170,
    "country": "Franța",
    "city": "Gagny",
    "address": "18 bis Allée des Chênes, 93220 Gagny",
    "location": "Altele",
    "latitude": 48.89481703,
    "longitude": 2.538547525
  },
  {
    "number": 171,
    "country": "Franța",
    "city": "Villeneuve-Saint-Georges",
    "address": "Maison pour tous, Rue des Chênes, 94190 Villeneuve-Saint-Georges",
    "location": "Altele",
    "latitude": 48.73562515,
    "longitude": 2.461343077
  },
  {
    "number": 172,
    "country": "Franța",
    "city": "Champigny-sur-Marne",
    "address": " 28 avenue Colombe Hardelet, 94500 Champigny sur Marne",
    "location": "Altele",
    "latitude": 48.81160103,
    "longitude": 2.544040956
  },
  {
    "number": 173,
    "country": "Franța",
    "city": "Villemomble",
    "address": "Médiathèque Robert Calméjane, Salle Mermoz, 118 Grande Rue, 93250 Villemomble",
    "location": "Altele",
    "latitude": 48.88249496,
    "longitude": 2.516648934
  },
  {
    "number": 174,
    "country": "Franța",
    "city": "Tours ",
    "address": "Le Grand Hotel de Tours, 5 Place du Général Leclerc-37000 Tours",
    "location": "Altele",
    "latitude": 47.38991888,
    "longitude": 0.6924742049
  },
  {
    "number": 175,
    "country": "Franța",
    "city": "Saran",
    "address": " Hotel Campanile Orléans Nord Saran, 744 Route Nationale 20, 45770 Saran",
    "location": "Altele",
    "latitude": 47.94456929,
    "longitude": 1.893383396
  },
  {
    "number": 176,
    "country": "Franța",
    "city": "Ivry-sur-Seine",
    "address": "Espace Robespierre, 2 rue Robespierre, 94200 Ivry-sur-Seine",
    "location": "Altele",
    "latitude": 47.37663099,
    "longitude": 0.6962570437
  },
  {
    "number": 177,
    "country": "Franța",
    "city": "Rouen",
    "address": "Maison de quartier Cavelier de la Salle, 1 Rue Pierre Forfait, 76100 Rouen ",
    "location": "Altele",
    "latitude": 49.43719245,
    "longitude": 1.081842558
  },
  {
    "number": 178,
    "country": "Franța",
    "city": "La Ferté-sous-Jouarre",
    "address": "10 Allée du Jumelage, 77260 La Ferté-sous-Jouarre",
    "location": "Altele",
    "latitude": 48.81089963,
    "longitude": 2.383564296
  },
  {
    "number": 179,
    "country": "Franța",
    "city": "Sarcelles ",
    "address": "Maison de Quartier Les Vignes Blanches, 9 Avenue Anna de Noailles, 95200 Sarcelles",
    "location": "Altele",
    "latitude": 48.97584092,
    "longitude": 2.373669773
  },
  {
    "number": 180,
    "country": "Franța",
    "city": "Poissy ",
    "address": "Hotel Restaurant L'Esturgeon,  6 Cours du 14 Juillet, 78300 Poissy",
    "location": "Altele",
    "latitude": 48.93293629,
    "longitude": 2.037719055
  },
  {
    "number": 181,
    "country": "Principatul Monaco",
    "city": "Monaco",
    "address": "Hotel Le Méridien Beach Plaza,  22 Avenue Princesse Grâce, 98000  Monte Carlo, Monaco",
    "location": "Altele",
    "latitude": 43.74834,
    "longitude": 7.43583
  },
  {
    "number": 182,
    "country": "Franța",
    "city": "Lyon 1",
    "address": "29 rue de Bonnel 69003 Lyon",
    "location": "Consulat general",
    "latitude": 45.76196,
    "longitude": 4.8461
  },
  {
    "number": 183,
    "country": "Franța",
    "city": "Lyon 2",
    "address": "111 rue Smith 69002 Lyon",
    "location": "Altele",
    "latitude": 45.74033,
    "longitude": 4.82051
  },
  {
    "number": 184,
    "country": "Franța",
    "city": "Saint Genis Laval",
    "address": "69 rue des Collonges 69230 Saint Genis Laval",
    "location": "Altele",
    "latitude": 45.69287,
    "longitude": 4.80355
  },
  {
    "number": 185,
    "country": "Franța",
    "city": "Saint Etienne",
    "address": "4 rue Andre Malraux 42000 Saint Etienne",
    "location": "Altele",
    "latitude": 45.43982711,
    "longitude": 4.385160368
  },
  {
    "number": 186,
    "country": "Franța",
    "city": "Dijon",
    "address": "40 rue Leonard de Vinci 21000 Dijon",
    "location": "Altele",
    "latitude": 47.30342433,
    "longitude": 5.010550791
  },
  {
    "number": 187,
    "country": "Franța",
    "city": "Clermont Ferrand",
    "address": "120 avenue de la Republique 63000 Clermont Ferrand",
    "location": "Altele",
    "latitude": 45.78877,
    "longitude": 3.10912
  },
  {
    "number": 188,
    "country": "Franța",
    "city": "Ambilly",
    "address": "2 rue de la Martiniere 74100 Ambilly",
    "location": "Altele",
    "latitude": 46.19925,
    "longitude": 6.22498
  },
  {
    "number": 189,
    "country": "Franța",
    "city": "Saint Martin d'Heres",
    "address": "10 place Paul Eluard 38400 Saint Martin d'Heres",
    "location": "Altele",
    "latitude": 45.16536542,
    "longitude": 5.747970215
  },
  {
    "number": 190,
    "country": "Franța",
    "city": "Marsilia 1 ",
    "address": "2 rue Henri Barbusse, 13001 Marseille ",
    "location": "Altele",
    "latitude": 43.29862,
    "longitude": 5.37461
  },
  {
    "number": 191,
    "country": "Franța",
    "city": "Marsilia 2",
    "address": " 2 rue Henri Barbusse, 13001 Marseille ",
    "location": "Altele",
    "latitude": 43.29862,
    "longitude": 5.37461
  },
  {
    "number": 192,
    "country": "Franța",
    "city": "Marignane",
    "address": "2 Rue de Provence, 13700 Marignane",
    "location": "Altele",
    "latitude": 43.41611003,
    "longitude": 5.22211993
  },
  {
    "number": 193,
    "country": "Franța",
    "city": "Nisa 1",
    "address": "4, Rue Ribotti, parter 06300 Nice",
    "location": "Altele",
    "latitude": 43.70222496,
    "longitude": 7.283973197
  },
  {
    "number": 194,
    "country": "Franța",
    "city": "Nisa 2",
    "address": "4, Rue Ribotti, parter 06300 Nice",
    "location": "Altele",
    "latitude": 43.70222496,
    "longitude": 7.283973197
  },
  {
    "number": 195,
    "country": "Franța",
    "city": "Cannes",
    "address": "1 avenue des Broussailles, 06400 Cannes ",
    "location": "Altele",
    "latitude": 43.56130473,
    "longitude": 7.004687725
  },
  {
    "number": 196,
    "country": "Franța",
    "city": "Montpellier",
    "address": "14 Dsc en Barrat, 34000 Montpellier",
    "location": "Altele",
    "latitude": 43.61339849,
    "longitude": 3.880453129
  },
  {
    "number": 197,
    "country": "Franța",
    "city": "Toulouse",
    "address": "1 Rue Léon Jouhaux 31500 Toulouse",
    "location": "Altele",
    "latitude": 43.61323488,
    "longitude": 1.460588536
  },
  {
    "number": 198,
    "country": "Franța",
    "city": "Bastia (Corsica)",
    "address": "Rue San-Angelo 20200 Bastia",
    "location": "Altele",
    "latitude": 42.69440499,
    "longitude": 9.44867617
  },
  {
    "number": 199,
    "country": "Franța",
    "city": "Ajaccio (Corsica)",
    "address": "73 cours Napoléon 20000 Ajaccio  ",
    "location": "Altele",
    "latitude": 41.92713027,
    "longitude": 8.738273401
  },
  {
    "number": 200,
    "country": "Franța",
    "city": "Strasbourg 1",
    "address": "41 rue Schweighaeuser, 67000 Strasbourg",
    "location": "Consulat General",
    "latitude": 48.58841,
    "longitude": 7.76912
  },
  {
    "number": 201,
    "country": "Franța",
    "city": "Strasbourg 2",
    "address": "41 rue Schweighaeuser, 67000 Strasbourg",
    "location": "Consulat General",
    "latitude": 48.58841,
    "longitude": 7.76912
  },
  {
    "number": 202,
    "country": "Franța",
    "city": "Colmar ",
    "address": "Parc des Expositions, avenue de la Foire aux Vins, 68000 Colmar",
    "location": "Altele",
    "latitude": 48.09865055,
    "longitude": 7.359862905
  },
  {
    "number": 203,
    "country": "Franța",
    "city": "Nancy",
    "address": "Domaine de l'Asnee, 11 rue de Laxou, 54600 Villers-les-Nancy",
    "location": "Altele",
    "latitude": 48.67438967,
    "longitude": 6.143036668
  },
  {
    "number": 204,
    "country": "Georgia",
    "city": "Tbilisi",
    "address": "Strada Lvovi nr. 7, cartier Saburtalo, Tbilisi, cod poștal 0160",
    "location": "Ambasadă",
    "latitude": 41.73243,
    "longitude": 44.76635
  },
  {
    "number": 205,
    "country": "Germania",
    "city": "Berlin 1",
    "address": "Dorotheenstr.62-66, 10117, Berlin  ",
    "location": "Ambasadă",
    "latitude": 52.51883026,
    "longitude": 13.386567
  },
  {
    "number": 206,
    "country": "Germania",
    "city": "Berlin 2",
    "address": "Dorotheenstr.62-66, 10117, Berlin  ",
    "location": "Ambasadă",
    "latitude": 52.51883026,
    "longitude": 13.386567
  },
  {
    "number": 207,
    "country": "Germania",
    "city": "Berlin 3",
    "address": "Dorotheenstr.62-66, 10117, Berlin ",
    "location": "Ambasadă",
    "latitude": 52.51877026,
    "longitude": 13.38660103
  },
  {
    "number": 208,
    "country": "Germania",
    "city": "Braunschweig",
    "address": "Madamenweg 77, 38120, Braunschweig ",
    "location": "Altele",
    "latitude": 52.25877,
    "longitude": 10.48226
  },
  {
    "number": 209,
    "country": "Germania",
    "city": "Bremen",
    "address": "An der Weide 50, 28195, Bremen",
    "location": "Altele",
    "latitude": 53.08143,
    "longitude": 8.81521
  },
  {
    "number": 210,
    "country": "Germania",
    "city": "Dresden",
    "address": "Dr. Külz-Ring 19, 01067, Dresden",
    "location": "Altele",
    "latitude": 51.04771354,
    "longitude": 13.73951248
  },
  {
    "number": 211,
    "country": "Germania",
    "city": "Erfurt",
    "address": "Leipziger Straße 15, 99085, Erfurt",
    "location": "Altele",
    "latitude": 50.98259754,
    "longitude": 11.04156751
  },
  {
    "number": 212,
    "country": "Germania",
    "city": "Flensburg",
    "address": "Ansgarstrasse 1, 24944, Flensburg ",
    "location": "Altele",
    "latitude": 54.80587336,
    "longitude": 9.465140741
  },
  {
    "number": 213,
    "country": "Germania",
    "city": "Hamburg 1",
    "address": "Albert-Einstein-Ring 11-15, 22761, Hamburg",
    "location": "Altele",
    "latitude": 53.57494,
    "longitude": 9.88799
  },
  {
    "number": 214,
    "country": "Germania",
    "city": "Hamburg 2",
    "address": "Jessenstraße 1-3, 22767, Hamburg",
    "location": "Altele",
    "latitude": 53.55094678,
    "longitude": 9.946551121
  },
  {
    "number": 215,
    "country": "Germania",
    "city": "Hanovra 1",
    "address": "Dornierstr.2, 30179, Hanovra",
    "location": "Altele",
    "latitude": 52.41717722,
    "longitude": 9.74730189
  },
  {
    "number": 216,
    "country": "Germania",
    "city": "Hanovra 2",
    "address": "Dornierstr.2a, 30179, Hanovra",
    "location": "Altele",
    "latitude": 52.41736431,
    "longitude": 9.747184606
  },
  {
    "number": 217,
    "country": "Germania",
    "city": "Kiel",
    "address": "Waisenhofstraße 3, 24103, Kiel",
    "location": "Altele",
    "latitude": 54.32150983,
    "longitude": 10.131628
  },
  {
    "number": 218,
    "country": "Germania",
    "city": "Leipzig",
    "address": " Burgplatz 1, 04109, Leipzig",
    "location": "Altele",
    "latitude": 51.33688253,
    "longitude": 12.37212043
  },
  {
    "number": 219,
    "country": "Germania",
    "city": "Lübeck",
    "address": "Bei der Lohmühle 13, 23554, Lübeck ",
    "location": "Altele",
    "latitude": 53.87969,
    "longitude": 10.6681
  },
  {
    "number": 220,
    "country": "Germania",
    "city": "Quakenbrück",
    "address": "Am Deich 20 49610, Quakenbrück",
    "location": "Altele",
    "latitude": 52.67204522,
    "longitude": 7.965858605
  },
  {
    "number": 221,
    "country": "Germania",
    "city": "Essen (Oldenburg)",
    "address": "Am Kirchplatz 3 49632, Essen (Oldenburg)",
    "location": "Altele",
    "latitude": 52.71726117,
    "longitude": 7.940914276
  },
  {
    "number": 222,
    "country": "Germania",
    "city": "Sögel",
    "address": "Püttkesberge 13, 49751, Sögel",
    "location": "Altele",
    "latitude": 52.83363,
    "longitude": 7.5141
  },
  {
    "number": 223,
    "country": "Germania",
    "city": "Bonn 1",
    "address": "Legionsweg 14, 53117 Bonn",
    "location": "Consulat",
    "latitude": 50.75054065,
    "longitude": 7.101199982
  },
  {
    "number": 224,
    "country": "Germania",
    "city": "Bonn 2",
    "address": "Legionsweg 14, 53117 Bonn",
    "location": "Consulat",
    "latitude": 50.75054065,
    "longitude": 7.101199982
  },
  {
    "number": 225,
    "country": "Germania",
    "city": "Bonn 3",
    "address": "Legionsweg 14, 53117 Bonn",
    "location": "Consulat",
    "latitude": 50.75054065,
    "longitude": 7.101199982
  },
  {
    "number": 226,
    "country": "Germania",
    "city": "Köln",
    "address": "Parohia Românească - 51065 Köln, Elisabeth-Breuer-Straße 48",
    "location": "Altele",
    "latitude": 50.96148,
    "longitude": 7.01233
  },
  {
    "number": 227,
    "country": "Germania",
    "city": "Neuss",
    "address": "Nixhütter Weg 85, 41468 Neuss",
    "location": "Altele",
    "latitude": 51.1724535,
    "longitude": 6.715342583
  },
  {
    "number": 228,
    "country": "Germania",
    "city": "Duisburg",
    "address": "Molbergstraße 14, 47249 Duisburg",
    "location": "Altele",
    "latitude": 51.38087404,
    "longitude": 6.74441189
  },
  {
    "number": 229,
    "country": "Germania",
    "city": "Dortmund",
    "address": "Zum Lonnenhohl 36, 44319 Dortmund",
    "location": "Altele",
    "latitude": 51.53139066,
    "longitude": 7.632920617
  },
  {
    "number": 230,
    "country": "Germania",
    "city": "Hamm",
    "address": "Caldenhofer Weg 192, Haus 6, den Raum 4, Hamm",
    "location": "Altele",
    "latitude": 51.67243857,
    "longitude": 7.845743379
  },
  {
    "number": 231,
    "country": "Germania",
    "city": "Gütersloh",
    "address": "Marienfelderstrasse 4A, 33330, Gutersloh",
    "location": "Altele",
    "latitude": 51.91035,
    "longitude": 8.37059
  },
  {
    "number": 232,
    "country": "Germania",
    "city": "Bielefeld",
    "address": "Biserica Ortodoxă Română, Feilenhauerweg 2 33659 Bielefeld",
    "location": "Altele",
    "latitude": 51.96891953,
    "longitude": 8.545729875
  },
  {
    "number": 233,
    "country": "Germania",
    "city": "Paderborn",
    "address": "Klingenderstrasse 13, 33100 Paderborn",
    "location": "Altele",
    "latitude": 51.72777,
    "longitude": 8.77629
  },
  {
    "number": 234,
    "country": "Germania",
    "city": "Kassel",
    "address": "Parohia Ortodoxă Română, Friedrich Eberth Strasse 249, 34119, Kassel",
    "location": "Altele",
    "latitude": 51.31533,
    "longitude": 9.45294
  },
  {
    "number": 235,
    "country": "Germania",
    "city": "Langeselbold",
    "address": "Sediu KIRCHHOF, Am Seegraben 4, 63505, Langenselbold",
    "location": "Altele",
    "latitude": 50.16383,
    "longitude": 9.04681
  },
  {
    "number": 236,
    "country": "Germania",
    "city": "Offenbach 1",
    "address": "Carl-Legien-Str. 15, 63073 Offenbach",
    "location": "Altele",
    "latitude": 50.08366556,
    "longitude": 8.836164358
  },
  {
    "number": 237,
    "country": "Germania",
    "city": "Offenbach 2",
    "address": "Carl-Legien-Str. 15, 63073 Offenbach",
    "location": "Altele",
    "latitude": 50.08366556,
    "longitude": 8.836164358
  },
  {
    "number": 238,
    "country": "Germania",
    "city": "Frankfurt",
    "address": "Sediu ANTAL, Im Bärengarten 11, 60599 Frankfurt",
    "location": "Altele",
    "latitude": 50.10364,
    "longitude": 8.71336
  },
  {
    "number": 239,
    "country": "Germania",
    "city": "Mainz",
    "address": "Anni-Eisler-Lehmannstraße 3, 55122 Mainz",
    "location": "Altele",
    "latitude": 50.00668652,
    "longitude": 8.251710104
  },
  {
    "number": 240,
    "country": "Germania",
    "city": "Bellheim",
    "address": "Blumenstrasse 12 76756 Bellheim",
    "location": "Altele",
    "latitude": 49.19155318,
    "longitude": 8.284138683
  },
  {
    "number": 241,
    "country": "Germania",
    "city": "Neustadt an der Weinstrasse",
    "address": "Le Quartier Hornbach 13, 67433 Neustadt an der Weinstraße",
    "location": "Altele",
    "latitude": 49.34154489,
    "longitude": 8.166912214
  },
  {
    "number": 242,
    "country": "Germania",
    "city": "Trier",
    "address": "Hotel Mercure, Porta Nigra Platz 1, 54292, Trier",
    "location": "Altele",
    "latitude": 49.7603001,
    "longitude": 6.644395537
  },
  {
    "number": 243,
    "country": "Germania",
    "city": "Dilingen",
    "address": "Industriestraße 60, 66763 Dilingen",
    "location": "Altele",
    "latitude": 49.34662557,
    "longitude": 6.719730526
  },
  {
    "number": 244,
    "country": "Germania",
    "city": "München 1",
    "address": "Smartvillage - Konferenzraum, Rosenkavalierplatz 14, cod poștal 81925, München",
    "location": "Altele",
    "latitude": 48.15118021,
    "longitude": 11.61882989
  },
  {
    "number": 245,
    "country": "Germania",
    "city": "München 2",
    "address": "Smartvillage - Konferenzraum, Rosenkavalierplatz 14, cod poștal 81925, München",
    "location": "Altele",
    "latitude": 48.15118021,
    "longitude": 11.61882989
  },
  {
    "number": 246,
    "country": "Germania",
    "city": "München 3",
    "address": "Smartvillage - Konferenzraum, Rosenkavalierplatz 14, cod poștal 81925, München",
    "location": "Altele",
    "latitude": 48.15118021,
    "longitude": 11.61882989
  },
  {
    "number": 247,
    "country": "Germania",
    "city": "München 4",
    "address": "Smartvillage - Konferenzraum, Rosenkavalierplatz 14, cod poștal 81925, München",
    "location": "Altele",
    "latitude": 48.15118021,
    "longitude": 11.61882989
  },
  {
    "number": 248,
    "country": "Germania",
    "city": "München 5",
    "address": "Smartvillage - Konferenzraum, Rosenkavalierplatz 14, cod poștal 81925, München",
    "location": "Altele",
    "latitude": 48.15118021,
    "longitude": 11.61882989
  },
  {
    "number": 249,
    "country": "Germania",
    "city": "Aschaffenburg",
    "address": "Pfarrei St. Konrad, Bussardweg 25, cod poștal 63741, Aschaffenburg",
    "location": "Altele",
    "latitude": 49.9919,
    "longitude": 9.11515
  },
  {
    "number": 250,
    "country": "Germania",
    "city": "Augsburg 1",
    "address": "Messe Augsburg - Halle 6, Am Messezentrum 5, cod poștal 86159, Augsburg",
    "location": "Altele",
    "latitude": 48.3410259,
    "longitude": 10.89278013
  },
  {
    "number": 251,
    "country": "Germania",
    "city": "Augsburg 2",
    "address": "Messe Augsburg - Halle 6, Am Messezentrum 5, cod poștal 86159, Augsburg",
    "location": "Altele",
    "latitude": 48.3410259,
    "longitude": 10.89278013
  },
  {
    "number": 252,
    "country": "Germania",
    "city": "Augsburg 3",
    "address": "Messe Augsburg - Halle 6, Am Messezentrum 5, cod poștal 86159, Augsburg",
    "location": "Altele",
    "latitude": 48.3410259,
    "longitude": 10.89278013
  },
  {
    "number": 253,
    "country": "Germania",
    "city": "Augsburg 4",
    "address": "Messe Augsburg - Halle 6, Am Messezentrum 5, cod poștal 86159, Augsburg",
    "location": "Altele",
    "latitude": 48.3410259,
    "longitude": 10.89278013
  },
  {
    "number": 254,
    "country": "Germania",
    "city": "Bayreuth",
    "address": "Schloßgalerie Bayreuth, Kanalstraße 3, cod poștal 95444, Bayreuth",
    "location": "Altele",
    "latitude": 49.94524637,
    "longitude": 11.57632649
  },
  {
    "number": 255,
    "country": "Germania",
    "city": "Dachau",
    "address": "Ludwig-Thoma-Haus, Augsburger Straße 23, cod poștal 85221, Dachau",
    "location": "Altele",
    "latitude": 48.26003787,
    "longitude": 11.43252002
  },
  {
    "number": 256,
    "country": "Germania",
    "city": "Erding ",
    "address": "Am Schönen Turm, Landshuter Str. 13, cod poștal 85435, Erding",
    "location": "Altele",
    "latitude": 48.30616289,
    "longitude": 11.9094562
  },
  {
    "number": 257,
    "country": "Germania",
    "city": "Fürth",
    "address": "Elan, Kapellenstraße 47, cod poștal 90762, Fürth",
    "location": "Altele",
    "latitude": 49.48144696,
    "longitude": 10.9890823
  },
  {
    "number": 258,
    "country": "Germania",
    "city": "Ingolstadt 1",
    "address": "NH-Tagungsraum, Goethestraße 153, cod poștal 85055, Ingolstadt",
    "location": "Altele",
    "latitude": 48.77245574,
    "longitude": 11.45491013
  },
  {
    "number": 259,
    "country": "Germania",
    "city": "Ingolstadt 2",
    "address": "NH-Tagungsraum, Goethestraße 153, cod poștal 85055, Ingolstadt",
    "location": "Altele",
    "latitude": 48.77245574,
    "longitude": 11.45491013
  },
  {
    "number": 260,
    "country": "Germania",
    "city": "Kempten",
    "address": "Tagungszentrum S4, An d. Stadtmauer 4, cod poștal 87435, Kempten",
    "location": "Altele",
    "latitude": 47.72438356,
    "longitude": 10.31973401
  },
  {
    "number": 261,
    "country": "Germania",
    "city": "Landshut",
    "address": "Ehem. Schule St. Martin, Neustadt 474/475, cod poștal 84028, Landshut",
    "location": "Altele",
    "latitude": 48.53435,
    "longitude": 12.15353
  },
  {
    "number": 262,
    "country": "Germania",
    "city": "Nürnberg-Cadolzburg 1",
    "address": "Sky Center Cadolzburg, Schwadermühlstraße 3, cod poștal 90556, Cadolzburg",
    "location": "Altele",
    "latitude": 49.47599317,
    "longitude": 10.86136414
  },
  {
    "number": 263,
    "country": "Germania",
    "city": "Nürnberg-Cadolzburg 2",
    "address": "Sky Center Cadolzburg, Schwadermühlstraße 3, cod poștal 90556, Cadolzburg",
    "location": "Altele",
    "latitude": 49.47599317,
    "longitude": 10.86136414
  },
  {
    "number": 264,
    "country": "Germania",
    "city": "Nürnberg-Cadolzburg 3",
    "address": "Sky Center Cadolzburg, Schwadermühlstraße 3, cod poștal 90556, Cadolzburg",
    "location": "Altele",
    "latitude": 49.47599317,
    "longitude": 10.86136414
  },
  {
    "number": 265,
    "country": "Germania",
    "city": "Nürnberg-Cadolzburg 4",
    "address": "Sky Center Cadolzburg, Schwadermühlstraße 3, cod poștal 90556, Cadolzburg",
    "location": "Altele",
    "latitude": 49.47599317,
    "longitude": 10.86136414
  },
  {
    "number": 266,
    "country": "Germania",
    "city": "Regensburg",
    "address": "Bayernhafen, Linzer Str. 6, cod poștal 93055, Regensburg",
    "location": "Altele",
    "latitude": 49.01791217,
    "longitude": 12.12199569
  },
  {
    "number": 267,
    "country": "Germania",
    "city": "Rosenheim",
    "address": "Kufsteiner Str. 69, cod poștal 83026, Rosenheim",
    "location": "Altele",
    "latitude": 47.84707215,
    "longitude": 12.12600333
  },
  {
    "number": 268,
    "country": "Germania",
    "city": "Straubing 1",
    "address": "Konferenzraum am Hafen Straubing-Sand, Europaring 4, cod poștal 94315, Straubing",
    "location": "Altele",
    "latitude": 48.89470411,
    "longitude": 12.65746414
  },
  {
    "number": 269,
    "country": "Germania",
    "city": "Straubing 2",
    "address": "Konferenzraum am Hafen Straubing-Sand, Europaring 4, cod poștal 94315, Straubing",
    "location": "Altele",
    "latitude": 48.89470411,
    "longitude": 12.65746414
  },
  {
    "number": 270,
    "country": "Germania",
    "city": "Traunreut",
    "address": "Biserica ortodoxă română, Siebenbürgenerstr.2, cod poștal 83301, Traunreut",
    "location": "Altele",
    "latitude": 47.96769,
    "longitude": 12.60646
  },
  {
    "number": 271,
    "country": "Germania",
    "city": "Vilshofen an der Donau ",
    "address": "Parohia ortodoxă, Aidenbacher Str. 92, cod poștal 94474, Vilshofen an der Donau",
    "location": "Altele",
    "latitude": 48.61412,
    "longitude": 13.17619
  },
  {
    "number": 272,
    "country": "Germania",
    "city": "Würzburg 1",
    "address": "Gemeindehaus St. Paul, Andreas-Grieser-Str. 2, cod poștal 97084, Würzburg",
    "location": "Altele",
    "latitude": 49.76467326,
    "longitude": 9.944484907
  },
  {
    "number": 273,
    "country": "Germania",
    "city": "Würzburg 2",
    "address": "Gemeindehaus St. Paul, Andreas-Grieser-Str. 2, cod poștal 97084, Würzburg",
    "location": "Altele",
    "latitude": 49.76467326,
    "longitude": 9.944484907
  },
  {
    "number": 274,
    "country": "Germania",
    "city": "Stuttgart 1",
    "address": "Hauptstätterstr. 70, 70178 Stuttgart",
    "location": "Consulat General",
    "latitude": 48.76994,
    "longitude": 9.17436
  },
  {
    "number": 275,
    "country": "Germania",
    "city": "Stuttgart 2",
    "address": "Hauptstätterstr. 70, 70178 Stuttgart",
    "location": "Consulat General",
    "latitude": 48.76994,
    "longitude": 9.17436
  },
  {
    "number": 276,
    "country": "Germania",
    "city": "Baden-Baden",
    "address": "Geroldsauer Str. 136, 76534 Baden-Baden",
    "location": "Altele",
    "latitude": 48.72767545,
    "longitude": 8.249362368
  },
  {
    "number": 277,
    "country": "Germania",
    "city": "Esslingen am Neckar",
    "address": "Finkenweg 20, 73730 Esslingen am Neckar",
    "location": "Altele",
    "latitude": 48.72208739,
    "longitude": 9.329548936
  },
  {
    "number": 278,
    "country": "Germania",
    "city": "Freiburg im Breisgau 1",
    "address": "Jakob Saur Str. 11, 79199 Kirchzarten",
    "location": "Altele",
    "latitude": 47.96865105,
    "longitude": 7.955967789
  },
  {
    "number": 279,
    "country": "Germania",
    "city": "Freiburg im Breisgau 2",
    "address": "Jakob Saur Str. 11, 79199 Kirchzarten",
    "location": "Altele",
    "latitude": 47.96865105,
    "longitude": 7.955967789
  },
  {
    "number": 280,
    "country": "Germania",
    "city": "Heilbronn",
    "address": "Herbststr.16, 74072 Heilbronn ",
    "location": "Altele",
    "latitude": 49.13908,
    "longitude": 9.2251
  },
  {
    "number": 281,
    "country": "Germania",
    "city": "Karlsruhe 1",
    "address": "Linkenheimer Landstr. 133, 76149 Karlsruhe",
    "location": "Altele",
    "latitude": 49.04574286,
    "longitude": 8.390889872
  },
  {
    "number": 282,
    "country": "Germania",
    "city": "Karlsruhe 2",
    "address": "Linkenheimer Landstr. 133, 76149 Karlsruhe",
    "location": "Altele",
    "latitude": 49.04574286,
    "longitude": 8.390889872
  },
  {
    "number": 283,
    "country": "Germania",
    "city": "Mannheim",
    "address": "O4 4, 68161 Mannheim ",
    "location": "Altele",
    "latitude": 49.48651,
    "longitude": 8.46862
  },
  {
    "number": 284,
    "country": "Germania",
    "city": "Pforzheim",
    "address": "Osterfelder Str. 12, 75172 Pforzheim",
    "location": "Altele",
    "latitude": 48.89309,
    "longitude": 8.68854
  },
  {
    "number": 285,
    "country": "Germania",
    "city": "Reutlingen",
    "address": "Ringelbachstraße 195/41, 72762 Reutlingen",
    "location": "Altele",
    "latitude": 48.47713,
    "longitude": 9.19838
  },
  {
    "number": 286,
    "country": "Germania",
    "city": "Schwäbisch Hall",
    "address": "Stauffenbergstraße 35 / 37, 74523 Schwäbisch Hall",
    "location": "Altele",
    "latitude": 49.11462,
    "longitude": 9.77662
  },
  {
    "number": 287,
    "country": "Germania",
    "city": "Sigmaringen",
    "address": "Georg-Zimmerer-Straße 4, 72488 Sigmaringen",
    "location": "Altele",
    "latitude": 48.08505,
    "longitude": 9.21063
  },
  {
    "number": 288,
    "country": "Germania",
    "city": "Singen",
    "address": "Hohgarten 2, 78224 Singen",
    "location": "Altele",
    "latitude": 47.76122757,
    "longitude": 8.834159561
  },
  {
    "number": 289,
    "country": "Germania",
    "city": "Ulm 1",
    "address": "Böfinger Straße 50, 89073 Ulm ",
    "location": "Altele",
    "latitude": 48.41256,
    "longitude": 10.01203
  },
  {
    "number": 290,
    "country": "Germania",
    "city": "Ulm 2",
    "address": "Böfinger Straße 50, 89073 Ulm ",
    "location": "Altele",
    "latitude": 48.41256,
    "longitude": 10.01203
  },
  {
    "number": 291,
    "country": "Grecia",
    "city": "Atena 1",
    "address": "strada Emmanouil Benaki 7, cod poștal 15452, Atena",
    "location": "Ambasadă",
    "latitude": 37.98352,
    "longitude": 23.73082
  },
  {
    "number": 292,
    "country": "Grecia",
    "city": "Atena 2",
    "address": "strada Liosion 123, cod poștal 10445, Atena",
    "location": "Altele",
    "latitude": 37.99709,
    "longitude": 23.722
  },
  {
    "number": 293,
    "country": "Grecia",
    "city": "Atena 3",
    "address": "strada Agias Sofias 27, cod poștal 10444, Atena",
    "location": "Altele",
    "latitude": 37.99191,
    "longitude": 23.71823
  },
  {
    "number": 294,
    "country": "Grecia",
    "city": "Aspropyrgos",
    "address": "Bd. Dimokratias F.N., Piața Sintrivani, cod poștal 19300 Aspropyrgos",
    "location": "Altele",
    "latitude": 38.05960608,
    "longitude": 23.58897504
  },
  {
    "number": 295,
    "country": "Grecia",
    "city": "Chania",
    "address": "strada Piața Eleftherias 1, cod poștal 73134, Chania",
    "location": "Altele",
    "latitude": 35.50962181,
    "longitude": 24.03070131
  },
  {
    "number": 296,
    "country": "Grecia",
    "city": "Iraklio",
    "address": "strada Athinas 18, cod poștal 71306, Iraklio",
    "location": "Altele",
    "latitude": 35.33347015,
    "longitude": 25.13775943
  },
  {
    "number": 297,
    "country": "Grecia",
    "city": "Patra",
    "address": "strada Filopoimenos 24, cod poștal 26221, Patra",
    "location": "Altele",
    "latitude": 38.24528,
    "longitude": 21.73223
  },
  {
    "number": 298,
    "country": "Grecia",
    "city": "Preveza",
    "address": "strada Lord Vyrona 6, cod poștal 48100, Preveza",
    "location": "Altele",
    "latitude": 38.95787,
    "longitude": 20.75376
  },
  {
    "number": 299,
    "country": "Grecia",
    "city": "Sparta",
    "address": "Bulevardul Likourgou nr. 89, Sparta, cod poștal 23100 ",
    "location": "Altele",
    "latitude": 37.07619,
    "longitude": 22.43109
  },
  {
    "number": 300,
    "country": "Grecia",
    "city": "Salonic",
    "address": "Str. Theagenous Charisi, nr. 78, Salonic, CP 54639",
    "location": "Consulat General",
    "latitude": 40.61515,
    "longitude": 22.9633
  },
  {
    "number": 301,
    "country": "Grecia",
    "city": "Larisa",
    "address": "Plateia OSE, nr. 6, Larisa, CP 41223",
    "location": "Altele",
    "latitude": 39.63195,
    "longitude": 22.43379
  },
  {
    "number": 302,
    "country": "India",
    "city": "New Delhi",
    "address": "3/6 Shanti Niketan, New Delhi 110021",
    "location": "Ambasadă",
    "latitude": 28.57752,
    "longitude": 77.17118
  },
  {
    "number": 303,
    "country": "Republica Indonezia",
    "city": "Jakarta",
    "address": "Jl. Teuku Cik Ditiro No.42-A 10, RT.10/RW.5, Menteng, Kec. Menteng, Kota Jakarta Pusat, Daerah Khusus Ibukota Jakarta 10310",
    "location": "Ambasadă",
    "latitude": -6.1981,
    "longitude": 106.83664
  },
  {
    "number": 304,
    "country": "Regatul Hașemit al Iordaniei",
    "city": "Amman",
    "address": "Str. Al-Madeenah Al-Munawarah, nr. 35, Amman, 11181, P.O.Box 2869",
    "location": "Ambasadă",
    "latitude": 31.96433,
    "longitude": 35.86438
  },
  {
    "number": 305,
    "country": "Irak",
    "city": "Bagdad",
    "address": "Mahalla 601, Zuquak 15, Al Mansur street, nr. C45, cod poștal 10001, Bagdad",
    "location": "Ambasadă",
    "latitude": 33.31494181,
    "longitude": 44.35379318
  },
  {
    "number": 306,
    "country": "Irak",
    "city": "Erbil",
    "address": "Gulan Street, Ster Tower, etaj 7, camera 702, cod poștal 44001, Erbil",
    "location": "Birou consular",
    "latitude": 36.21660839,
    "longitude": 44.00533077
  },
  {
    "number": 307,
    "country": "Republica Islamică Iran",
    "city": "Teheran",
    "address": "str. Shahid Meshki nr 89 (cod poștal 115.46.399.11), (zona Fakhrabad), Baharestan, Tehran",
    "location": "Secție Consulară",
    "latitude": 35.69474056,
    "longitude": 51.44125158
  },
  {
    "number": 308,
    "country": "Irlanda",
    "city": "Dublin 1",
    "address": "Palmerston House, Ground Floor, Denzille Lane/Fenian Street, Dublin 2, D02 WD37",
    "location": "Secție Consulară",
    "latitude": 53.34131569,
    "longitude": -6.248519822
  },
  {
    "number": 309,
    "country": "Irlanda",
    "city": "Dublin 2",
    "address": "Palmerston House, Ground Floor, Denzille Lane/Fenian Street, Dublin 2, D02 WD37",
    "location": "Secție Consulară",
    "latitude": 53.34131569,
    "longitude": -6.248519822
  },
  {
    "number": 310,
    "country": "Irlanda",
    "city": "Dublin 3",
    "address": "Palmerston House, Ground Floor, Denzille Lane/Fenian Street, Dublin 2, D02 WD37",
    "location": "Secție Consulară",
    "latitude": 53.34131569,
    "longitude": -6.248519822
  },
  {
    "number": 311,
    "country": "Irlanda",
    "city": "Dublin 4",
    "address": "Palmerston House, Ground Floor, Denzille Lane/Fenian Street, Dublin 2, D02 WD37",
    "location": "Secție Consulară",
    "latitude": 53.34131569,
    "longitude": -6.248519822
  },
  {
    "number": 312,
    "country": "Irlanda",
    "city": "Dublin 5",
    "address": "Westmanstown Sports and Conference Centre, Lucan Road,Clonsilla, Dublin 15, D15 Y2DH",
    "location": "Altele",
    "latitude": 53.37966821,
    "longitude": -6.442182591
  },
  {
    "number": 313,
    "country": "Irlanda",
    "city": "Dublin 6",
    "address": "Westmanstown Sports and Conference Centre, Lucan Road,Clonsilla, Dublin 15, D15 Y2DH",
    "location": "Altele",
    "latitude": 53.37966821,
    "longitude": -6.442182591
  },
  {
    "number": 314,
    "country": "Irlanda",
    "city": "Dublin 7",
    "address": "Westmanstown Sports and Conference Centre, Lucan Road,Clonsilla, Dublin 15, D15 Y2DH",
    "location": "Altele",
    "latitude": 53.37966821,
    "longitude": -6.442182591
  },
  {
    "number": 315,
    "country": "Irlanda",
    "city": "Dublin 8",
    "address": "Westmanstown Sports and Conference Centre, Lucan Road,Clonsilla, Dublin 15, D15 Y2DH",
    "location": "Altele",
    "latitude": 53.37966821,
    "longitude": -6.442182591
  },
  {
    "number": 316,
    "country": "Irlanda",
    "city": "Dublin 9",
    "address": "Westmanstown Sports and Conference Centre, Lucan Road,Clonsilla, Dublin 15, D15 Y2DH",
    "location": "Altele",
    "latitude": 53.37966821,
    "longitude": -6.442182591
  },
  {
    "number": 317,
    "country": "Irlanda",
    "city": "Dublin 10",
    "address": "Westmanstown Sports and Conference Centre, Lucan Road,Clonsilla, Dublin 15, D15 Y2DH",
    "location": "Altele",
    "latitude": 53.37966821,
    "longitude": -6.442182591
  },
  {
    "number": 318,
    "country": "Irlanda",
    "city": "Cork",
    "address": "Little Island Sports Complex, Wallingstown, Little Island, Cork, T45 F449",
    "location": "Altele",
    "latitude": 51.90033353,
    "longitude": -8.368064702
  },
  {
    "number": 319,
    "country": "Irlanda",
    "city": "Drogheda",
    "address": "Drogheda Civic Offices, Fair Street, Moneymore, Drogheda, Co. Louth, A92 P440",
    "location": "Altele",
    "latitude": 53.7163997,
    "longitude": -6.353500252
  },
  {
    "number": 320,
    "country": "Irlanda",
    "city": "Galway",
    "address": "Ardilaun House Hotel, Taylors Hill Road, Galway, H91 H29F",
    "location": "Altele",
    "latitude": 53.2675936,
    "longitude": -9.080915109
  },
  {
    "number": 321,
    "country": "Irlanda",
    "city": "Kilkenny",
    "address": "Pembroke Hotel, 11 Patrick St, Garden, Kilkenny, R95 VNP4",
    "location": "Altele",
    "latitude": 52.64940528,
    "longitude": -7.251317327
  },
  {
    "number": 322,
    "country": "Irlanda",
    "city": "Limerick",
    "address": "The Engine Building, Cecil Street, Limerick, V94 TN32",
    "location": "Altele",
    "latitude": 52.66070893,
    "longitude": -8.626382767
  },
  {
    "number": 323,
    "country": "Irlanda",
    "city": "Waterford",
    "address": "Crystal Sport and Leisure Centre, Cork Road, Waterford City, X91 E6PX",
    "location": "Altele",
    "latitude": 52.24338616,
    "longitude": -7.150444708
  },
  {
    "number": 324,
    "country": "Israel",
    "city": "Tel Aviv 1",
    "address": "Paz Tower, Str. Shoham, Nr. 2, Et. 8, 52510, Ramat Gan",
    "location": "Secţie Consulară",
    "latitude": 32.08228697,
    "longitude": 34.8033368
  },
  {
    "number": 325,
    "country": "Israel",
    "city": "Tel Aviv 2",
    "address": " Shaul Hamelech Bvd, Nr. 8., 64733, Tel Aviv",
    "location": "ICR",
    "latitude": 32.07537382,
    "longitude": 34.78406227
  },
  {
    "number": 326,
    "country": "Israel",
    "city": "Haifa",
    "address": "3 Habankim, Haifa, cod poștal 3326115",
    "location": "Consulat General",
    "latitude": 32.82012292,
    "longitude": 34.99732497
  },
  {
    "number": 327,
    "country": "Italia ",
    "city": "Roma 1",
    "address": "Via Nicolò Tartaglia, 40, cod poștal 00197, Roma",
    "location": "Ambasadă ",
    "latitude": 41.9243021,
    "longitude": 12.48822183
  },
  {
    "number": 328,
    "country": "Italia ",
    "city": "Roma 2 ",
    "address": "Via Nicolò Tartaglia, 40, cod poștal 00197, Roma",
    "location": "Ambasadă ",
    "latitude": 41.9243021,
    "longitude": 12.48822183
  },
  {
    "number": 329,
    "country": "Italia ",
    "city": "Roma 3 ",
    "address": "Piazza José de S.Martin, 1 cod poștal 00197, Roma",
    "location": "ICR ",
    "latitude": 41.9169544,
    "longitude": 12.47948078
  },
  {
    "number": 330,
    "country": "Italia ",
    "city": "Roma 4 ",
    "address": "Viale delle Belle Arti, 110 cod poștal 00197, Roma",
    "location": "ICR ",
    "latitude": 41.91691313,
    "longitude": 12.48216415
  },
  {
    "number": 331,
    "country": "Italia ",
    "city": "Roma 5 ",
    "address": "Viale Libano 38-40, cod poștal 00144, Roma",
    "location": "Consulat General ",
    "latitude": 41.82243447,
    "longitude": 12.46390406
  },
  {
    "number": 332,
    "country": "Italia ",
    "city": "Roma 6 ",
    "address": "Viale Libano 38-40, cod poștal 00144,Roma",
    "location": "Consulat General ",
    "latitude": 41.82243447,
    "longitude": 12.46390406
  },
  {
    "number": 333,
    "country": "Italia ",
    "city": "Roma 7 ",
    "address": "Viale Libano 38-40, cod poștal 00144, Roma",
    "location": "Consulat General ",
    "latitude": 41.82243447,
    "longitude": 12.46390406
  },
  {
    "number": 334,
    "country": "Italia ",
    "city": "Ostia  ",
    "address": "Centro Anziani Il Sommergibile, Viale del Sommergibile, 71, cod poștal 00121 Ostia",
    "location": "Altele",
    "latitude": 41.73725403,
    "longitude": 12.26227205
  },
  {
    "number": 335,
    "country": "Italia ",
    "city": "Monterotondo ",
    "address": "Quality Hotel Green Palace, via  Salaria, 207, cod poștal 00015,  Monterotondo",
    "location": "Altele",
    "latitude": 42.0617952,
    "longitude": 12.58915836
  },
  {
    "number": 336,
    "country": "Italia ",
    "city": "Guidonia",
    "address": "Biblioteca comunală, via Maurizio Morris 7, cod poștal 00012, Guidonia Montecelio",
    "location": "Altele",
    "latitude": 41.99159944,
    "longitude": 12.72226832
  },
  {
    "number": 337,
    "country": "Italia ",
    "city": "Palestrina",
    "address": "Albergo Stella, Piazza della Liberazione 3, cod poștal 00036, Palestrina",
    "location": "Altele",
    "latitude": 41.83906004,
    "longitude": 12.89012304
  },
  {
    "number": 338,
    "country": "Italia ",
    "city": "Tivoli",
    "address": "Città dello Sport di Tivoli, Via Empolitana, 00019 Tivoli RM",
    "location": "Altele",
    "latitude": 41.94858323,
    "longitude": 12.83261725
  },
  {
    "number": 339,
    "country": "Italia ",
    "city": "Rignano Flaminio",
    "address": "Centro Vaccinale di Rignano Flaminio, Via dell'Aquila, cod poștal 00068 Rignano Flaminio RM",
    "location": "Altele",
    "latitude": 42.16100386,
    "longitude": 12.4808874
  },
  {
    "number": 340,
    "country": "Italia ",
    "city": "Albano Laziale",
    "address": "Villa Altieri, Via Appia Nuova  nr. 1, cod poștal 00041, Albano Laziale",
    "location": "Altele",
    "latitude": 41.7314058,
    "longitude": 12.65564558
  },
  {
    "number": 341,
    "country": "Italia ",
    "city": "Ladispoli",
    "address": "Centro Arte e Cultura, via Settevene Palo Nord nr. 21, cod poștal 00055,  Ladispoli  ",
    "location": "Altele",
    "latitude": 41.96763807,
    "longitude": 12.08368255
  },
  {
    "number": 342,
    "country": "Italia ",
    "city": "Frosinone",
    "address": "Casa della Cultura, Via giordano Bruno, cod poștal 03100,  Frosinone",
    "location": "Altele",
    "latitude": 41.64412722,
    "longitude": 13.35288542
  },
  {
    "number": 343,
    "country": "Italia ",
    "city": "Latina ",
    "address": "Centro Commerciale AGORA Viale John Fitzgerald Kennedy, 04100 Latina LT ",
    "location": "Altele",
    "latitude": 41.46353605,
    "longitude": 12.88266634
  },
  {
    "number": 344,
    "country": "Italia ",
    "city": "Viterbo ",
    "address": "Centro sociale polivalente “Sacrario”, Via Santa Maria in Volturno 18, cod poștal 01100 Viterbo",
    "location": "Altele",
    "latitude": 42.41900536,
    "longitude": 12.10405182
  },
  {
    "number": 345,
    "country": "Italia ",
    "city": "Terni ",
    "address": "Sala de consiliu Piazza San Giovanni, Paolo II nr. 1, cod poștal  05100, Terni",
    "location": "Altele",
    "latitude": 42.56246351,
    "longitude": 12.64641775
  },
  {
    "number": 346,
    "country": "Italia ",
    "city": "Perugia ",
    "address": "Sala Gnoli, Via Umberto Gnoli, cod poștal 06128, Perugia",
    "location": "Altele",
    "latitude": 43.13240306,
    "longitude": 12.3600167
  },
  {
    "number": 347,
    "country": "Italia ",
    "city": "Pescara ",
    "address": "Centro Polivalente Mons. Gustavo Britti, Via Rio Sparto, cod poștal 65129 Pescara ",
    "location": "Altele",
    "latitude": 42.44830589,
    "longitude": 14.21407887
  },
  {
    "number": 348,
    "country": "Italia ",
    "city": "Olbia ",
    "address": "Sala Corsi ASPO, via Indonesia, nr. 9, cod poștal 07026, Olbia ",
    "location": "Altele",
    "latitude": 40.9315358,
    "longitude": 9.513158974
  },
  {
    "number": 349,
    "country": "Italia ",
    "city": "Cagliari ",
    "address": "Primărie - Sala EXTE - Via Roma 145, cod poștal 09124, Cagliari   ",
    "location": "Altele",
    "latitude": 39.21528247,
    "longitude": 9.110569694
  },
  {
    "number": 350,
    "country": "Italia ",
    "city": "Napoli",
    "address": "Hotel Futura - Sala  AUDITORIUM 3, Via Nazionale delle Puglie 195, cod poștal 80026 Napoli",
    "location": "Altele",
    "latitude": 40.89081895,
    "longitude": 14.32247128
  },
  {
    "number": 351,
    "country": "Malta ",
    "city": "La Valletta ",
    "address": "Grand Hotel Excelsior, Great Siege Road, Floriana FRN 1810",
    "location": "Altele",
    "latitude": 35.89689025,
    "longitude": 14.50509242
  },
  {
    "number": 352,
    "country": "Italia",
    "city": "Bari 1",
    "address": "Via Bruno Zaccaro Nr.17/19 Bari, cod poștal 70126",
    "location": "Consulat General",
    "latitude": 41.09064023,
    "longitude": 16.88908565
  },
  {
    "number": 353,
    "country": "Italia",
    "city": "Bari 2",
    "address": "Palazzo Città, Corso Vittorio Emanuele II, Nr. 84, Bari , cod poștal 70122",
    "location": "Altele",
    "latitude": 41.12579566,
    "longitude": 16.86772444
  },
  {
    "number": 354,
    "country": "Italia",
    "city": "Campobasso",
    "address": "Terzo Spazio, ex Scuola Cep Nord, Via Eugenio Cirese snc, Campobasso, cod poștal 86100",
    "location": "Altele",
    "latitude": 41.56618712,
    "longitude": 14.67450769
  },
  {
    "number": 355,
    "country": "Italia",
    "city": "Catanzaro",
    "address": "Istituto Comprensivo \"Casalinuovo”, Via Stretto Antico Snc, Catanzaro, cod poștal 88100",
    "location": "Altele",
    "latitude": 38.82537476,
    "longitude": 16.6090766
  },
  {
    "number": 356,
    "country": "Italia",
    "city": "Cosenza",
    "address": "Via San Martino nr. 23, Ex Municipia SpA, Piazza San Nicola, Cosenza, cod poștal 87100",
    "location": "Altele",
    "latitude": 39.29292012,
    "longitude": 16.25431826
  },
  {
    "number": 357,
    "country": "Italia",
    "city": "Crotone",
    "address": "Comando Polizia Locale, Via Leonardo Gallucci, Nr. 109, Crotone, cod poștal 88900",
    "location": "Altele",
    "latitude": 39.0675215,
    "longitude": 17.12953316
  },
  {
    "number": 358,
    "country": "Italia",
    "city": "Foggia",
    "address": "Ufficio Anagrafe, Viale Candelaro Nr. 102, Foggia, cod poștal 71121",
    "location": "Altele",
    "latitude": 41.46797948,
    "longitude": 15.5372295
  },
  {
    "number": 359,
    "country": "Italia",
    "city": "Ginosa",
    "address": "Istituto Comprensivo G. Deledda - S. G. Bosco, Via Quarto, Nr. 8, Ginosa, cod poștal 74013",
    "location": "Altele",
    "latitude": 40.57648545,
    "longitude": 16.75555246
  },
  {
    "number": 360,
    "country": "Italia",
    "city": "Isernia",
    "address": "Auditorium \"10 settembre 1943\", Corso Risorgimento Nr. 221, Isernia, cod poștal 86170",
    "location": "Altele",
    "latitude": 41.59703456,
    "longitude": 14.24171687
  },
  {
    "number": 361,
    "country": "Italia",
    "city": "Lamezia Terme",
    "address": "Complesso Monumentale del San Domenico (Museo Archeologico Lamentino), Piazzetta San Domenico snc, Lamezia Terme, cod poștal 88046 ",
    "location": "Altele",
    "latitude": 38.974667,
    "longitude": 16.31894636
  },
  {
    "number": 362,
    "country": "Italia",
    "city": "Lecce",
    "address": "Centro Sociale Comunale, Via Matera Nr. 2, Lecce, cod poștal 73100",
    "location": "Altele",
    "latitude": 40.35657274,
    "longitude": 18.20045011
  },
  {
    "number": 363,
    "country": "Italia",
    "city": "Matera",
    "address": "Complesso Commerciale Il Circo, Sala Consiliare \"Pier Paolo Pasolini\", Via G. Sallustio Crispo snc,  Matera, cod poștal 75100 ",
    "location": "Altele",
    "latitude": 40.68120139,
    "longitude": 16.57761316
  },
  {
    "number": 364,
    "country": "Italia",
    "city": "Potenza",
    "address": "Centro Provinciale Istruzione, Via Pietro Lacava Nr. 2, Potenza, cod poștal 85100 ",
    "location": "Altele",
    "latitude": 40.63771851,
    "longitude": 15.81400577
  },
  {
    "number": 365,
    "country": "Italia",
    "city": "Reggio Calabria",
    "address": "Sala G. Versace - Palazzo CE.DIR, Via Sant'Anna II Tronco, Reggio Calabria, cod poștal 89128",
    "location": "Altele",
    "latitude": 38.10346518,
    "longitude": 15.65401047
  },
  {
    "number": 366,
    "country": "Italia",
    "city": "Taranto",
    "address": "Istituto Comprensivo \"Europa-Alighieri\", Scuola dell'Infanzia e primaria - Plesso Basile, Via Solito Nr. 50 angolo Via Plinio Nr. 58, Taranto, cod poștal 74123",
    "location": "Altele",
    "latitude": 40.4624643,
    "longitude": 17.26170147
  },
  {
    "number": 367,
    "country": "Italia",
    "city": "Trani",
    "address": "Ufficio Presidenza Provincia di B.A.T., ex Lum, SP 130, Km.1.500, Trani, cod poștal 76125 ",
    "location": "Altele",
    "latitude": 41.26950207,
    "longitude": 16.38695863
  },
  {
    "number": 368,
    "country": "Italia",
    "city": "Vibo Valentia",
    "address": "Palazzo Valentianum, Piazza San Leoluca SNC, Vibo Valentia , cod poștal 89900",
    "location": "Altele",
    "latitude": 38.67721082,
    "longitude": 16.10635181
  },
  {
    "number": 369,
    "country": "Italia",
    "city": "Bologna 1 ",
    "address": "Via Guelfa, nr.9B, cod poștal 40138, Bologna",
    "location": "Consulat General",
    "latitude": 44.49142237,
    "longitude": 11.38731743
  },
  {
    "number": 370,
    "country": "Italia",
    "city": "Bologna 2",
    "address": "Via Guelfa, nr.9D, cod poștal 40138, Bologna",
    "location": "Consulat General",
    "latitude": 44.49144481,
    "longitude": 11.38728346
  },
  {
    "number": 371,
    "country": "Italia",
    "city": "Bologna 3 (Borgo Panigale)",
    "address": "Via Battindarno, nr.123, sala Falcone Borsellino, cod poștal 40133, Borgo Panigale",
    "location": "Altele",
    "latitude": 44.50229135,
    "longitude": 11.29628199
  },
  {
    "number": 372,
    "country": "Italia",
    "city": "Ancona",
    "address": "Via Battisti, nr. 11/c, Sala Civica, cod poștal 60123, Ancona",
    "location": "Altele",
    "latitude": 43.61725041,
    "longitude": 13.52529384
  },
  {
    "number": 373,
    "country": "Italia",
    "city": "Arezzo",
    "address": "Via Pier Luigi da Palestrina, 19, cod poștal 52100, Arezzo",
    "location": "Altele",
    "latitude": 43.4713015,
    "longitude": 11.88724166
  },
  {
    "number": 374,
    "country": "Italia",
    "city": "Ascoli Piceno",
    "address": "Via Emidio Luzi, nr.18, cod poștal 63100, Ascoli Piceno",
    "location": "Altele",
    "latitude": 42.85842819,
    "longitude": 13.64237144
  },
  {
    "number": 375,
    "country": "Italia",
    "city": "Budrio",
    "address": "Via Bianchi, nr. 31, sala Centro Sociale LaMagnolia, cod poștal 40054, Budrio",
    "location": "Altele",
    "latitude": 44.54014966,
    "longitude": 11.53669091
  },
  {
    "number": 376,
    "country": "Italia",
    "city": "Cesena",
    "address": "Piazza Anna Magnani n.143, sala del Quartiere Oltre Savio,  cod poștal 47522, Cesena",
    "location": "Altele",
    "latitude": 44.13592736,
    "longitude": 12.22768349
  },
  {
    "number": 377,
    "country": "Italia",
    "city": "Ferrara",
    "address": "Viale Costituzione, nr.2/4, cod poștal 44122, Ferrara",
    "location": "Altele",
    "latitude": 44.84418008,
    "longitude": 11.60588912
  },
  {
    "number": 378,
    "country": "Italia",
    "city": "Firenze",
    "address": "Piazza Madonna della Neve, nr. 6, sala Pasquini, cod poștal 50122, Firenze ",
    "location": "Altele",
    "latitude": 43.76931458,
    "longitude": 11.26897234
  },
  {
    "number": 379,
    "country": "Italia",
    "city": "Forli",
    "address": "Aule della scuola Melozzo, in via Filippo Turati n.26, cod poștal 47121",
    "location": "Altele",
    "latitude": 44.22222575,
    "longitude": 12.03210648
  },
  {
    "number": 380,
    "country": "Italia",
    "city": "Grosseto",
    "address": "Via Inghilterra, nr. 47A, Sala Pace, cod poștal 58100, Grosseto",
    "location": "Altele",
    "latitude": 42.777394,
    "longitude": 11.11886031
  },
  {
    "number": 381,
    "country": "Italia",
    "city": "Imola",
    "address": "Viale Cappuccini n.14, cod poștal 40026, Imola",
    "location": "Altele",
    "latitude": 44.35578382,
    "longitude": 11.70112327
  },
  {
    "number": 382,
    "country": "Italia",
    "city": "Livorno",
    "address": "Piazza del Municipio 1, Sala Simonini, Scali Finocchetti 4, cod poștal 57123, Livorno",
    "location": "Altele",
    "latitude": 43.55257223,
    "longitude": 10.30887889
  },
  {
    "number": 383,
    "country": "Italia",
    "city": "Lucca",
    "address": "Via Provinciale di S.Alessio n.2145, cod poștal 55100, Lucca",
    "location": "Altele",
    "latitude": 43.86181784,
    "longitude": 10.48165069
  },
  {
    "number": 384,
    "country": "Italia",
    "city": "Macerata",
    "address": "Via Lino Liviabella, nr. 7, Sforzacosta, cod poștal 62100, Macerata",
    "location": "Altele",
    "latitude": 43.25557991,
    "longitude": 13.4161701
  },
  {
    "number": 385,
    "country": "Italia",
    "city": "Massa",
    "address": "Via San Leonardo n. 484, cod poștal 54100, Massa",
    "location": "Altele",
    "latitude": 44.00997002,
    "longitude": 10.10139847
  },
  {
    "number": 386,
    "country": "Italia",
    "city": "Modena",
    "address": "Via Viterbo, n.80, cod poștal 41125, Modena",
    "location": "Altele",
    "latitude": 44.62288471,
    "longitude": 10.93721475
  },
  {
    "number": 387,
    "country": "Italia",
    "city": "Montecatini Terme",
    "address": "Palazzo del Turismo, Viale Verdi, n.68, cod poștal 51016, Montecatini Terme",
    "location": "Altele",
    "latitude": 43.88472472,
    "longitude": 10.77384925
  },
  {
    "number": 388,
    "country": "Italia",
    "city": "Parma",
    "address": "Via Bizzozzero, n.19, cod poștal 43123, Parma",
    "location": "Altele",
    "latitude": 44.78701018,
    "longitude": 10.32983029
  },
  {
    "number": 389,
    "country": "Italia",
    "city": "Pesaro",
    "address": "Piazza Europa, nr. 16, Baia Flaminia, cod poștal 61121, Pesaro",
    "location": "Altele",
    "latitude": 43.92074876,
    "longitude": 12.90076495
  },
  {
    "number": 390,
    "country": "Italia",
    "city": "Piacenza",
    "address": "Via Cantone S.Nazzaro, nr.16, cod poștal 29121, Piacenza",
    "location": "Altele",
    "latitude": 45.05508816,
    "longitude": 9.684945797
  },
  {
    "number": 391,
    "country": "Italia",
    "city": "Pistoia",
    "address": "Via Cancellieri n.30, cod poștal 51100, Pistoia ",
    "location": "Altele",
    "latitude": 43.93392515,
    "longitude": 10.91275231
  },
  {
    "number": 392,
    "country": "Italia",
    "city": "Prato",
    "address": "Via Andrea Guazzalotti, nr. 12, cod poștal 59100, Prato",
    "location": "Altele",
    "latitude": 43.8646374,
    "longitude": 11.04136263
  },
  {
    "number": 393,
    "country": "Italia",
    "city": "Ravenna",
    "address": "Via Oriani, nr.44, Sala degli emigranti, cod poștal 48121, Ravenna",
    "location": "Altele",
    "latitude": 44.41458376,
    "longitude": 12.20425539
  },
  {
    "number": 394,
    "country": "Italia",
    "city": "Reggio Emilia",
    "address": "Via A.Toscanini, nr. 20, Centro Sociale L.Spallanzani Orti, cod poștal 42122, Reggio Emilia",
    "location": "Altele",
    "latitude": 44.68480172,
    "longitude": 10.6484211
  },
  {
    "number": 395,
    "country": "Italia",
    "city": "Rimini",
    "address": "Via Bidente, nr. 1/P, Sala Civica, cod poștal 47924, Rimini",
    "location": "Altele",
    "latitude": 44.03709428,
    "longitude": 12.57544698
  },
  {
    "number": 396,
    "country": "Italia",
    "city": "San Lazzaro",
    "address": "Via Emilia, nr.92, Sala di Citta, cod poștal 40068, San Lazzaro di Savena",
    "location": "Altele",
    "latitude": 44.44580958,
    "longitude": 11.4733005
  },
  {
    "number": 397,
    "country": "Italia",
    "city": "Sesto Fiorentino",
    "address": "Via del Risorgimento nr. 237, Circolo di Padule, cod poștal 50019, Sesto Fiorentino",
    "location": "Altele",
    "latitude": 43.8366766,
    "longitude": 11.17667561
  },
  {
    "number": 398,
    "country": "Italia",
    "city": "Siena",
    "address": "Via P.Nenni, nr. 8/A,  Centro Civico La Meridiana, cod poștal  53100, Siena",
    "location": "Altele",
    "latitude": 43.34768483,
    "longitude": 11.33050483
  },
  {
    "number": 399,
    "country": "Italia",
    "city": "Catania 1",
    "address": "Via Misterbianco 1, 95131",
    "location": "Consulat",
    "latitude": 37.50649739,
    "longitude": 15.09631573
  },
  {
    "number": 400,
    "country": "Italia",
    "city": "Catania 2",
    "address": "Via Misterbianco 1, 95131",
    "location": "Consulat",
    "latitude": 37.50649739,
    "longitude": 15.09631573
  },
  {
    "number": 401,
    "country": "Italia",
    "city": "Alcamo",
    "address": "Via Ugo Foscolo 1, 91011",
    "location": "Altele",
    "latitude": 37.98420104,
    "longitude": 12.96166813
  },
  {
    "number": 402,
    "country": "Italia",
    "city": "Vittoria",
    "address": "Via Del Tennis 23, 97019",
    "location": "Altele",
    "latitude": 36.93001487,
    "longitude": 14.48809225
  },
  {
    "number": 403,
    "country": "Italia",
    "city": "Palermo",
    "address": "Via IV Aprile 4, Palazzo Palagonia alla Gancia - Aula Lorusso,  90133",
    "location": "Altele",
    "latitude": 38.11674423,
    "longitude": 13.3700606
  },
  {
    "number": 404,
    "country": "Italia",
    "city": "Canicatti",
    "address": "Piazza Dante, Centro Culturale San Domenico, 95024",
    "location": "Altele",
    "latitude": 37.3570207,
    "longitude": 13.84699568
  },
  {
    "number": 405,
    "country": "Italia",
    "city": "Messina",
    "address": "Palazzo Zanca, Intrare din Via San Camillo nr. 110/colț cu Via Cavour, 98122",
    "location": "Altele",
    "latitude": 38.19444974,
    "longitude": 15.55478117
  },
  {
    "number": 406,
    "country": "Italia",
    "city": "Milano 1",
    "address": "Via Costantino Baroni 85, 20142 Milano",
    "location": "Altele",
    "latitude": 45.40551087,
    "longitude": 9.171000749
  },
  {
    "number": 407,
    "country": "Italia",
    "city": "Milano 2",
    "address": "Via Costantino Baroni 85, 20142 Milano",
    "location": "Altele",
    "latitude": 45.40551087,
    "longitude": 9.171000749
  },
  {
    "number": 408,
    "country": "Italia",
    "city": "Milano 3",
    "address": "Via Costantino Baroni 85, 20142 Milano",
    "location": "Altele",
    "latitude": 45.40551087,
    "longitude": 9.171000749
  },
  {
    "number": 409,
    "country": "Italia",
    "city": "Milano 4",
    "address": "Via Costantino Baroni 85, 20142 Milano",
    "location": "Altele",
    "latitude": 45.40551087,
    "longitude": 9.171000749
  },
  {
    "number": 410,
    "country": "Italia",
    "city": "Bergamo 1",
    "address": "Via dei Carpinoni 18, 24126 Bergamo",
    "location": "Altele",
    "latitude": 45.68342929,
    "longitude": 9.668320237
  },
  {
    "number": 411,
    "country": "Italia",
    "city": "Bergamo 2",
    "address": "Via dei Carpinoni 18, 24126 Bergamo",
    "location": "Altele",
    "latitude": 45.68342929,
    "longitude": 9.668320237
  },
  {
    "number": 412,
    "country": "Italia",
    "city": "Brescia 1",
    "address": "Piazza Luigi Buffoli 16, 25127 Brescia",
    "location": "Altele",
    "latitude": 45.55224058,
    "longitude": 10.19174862
  },
  {
    "number": 413,
    "country": "Italia",
    "city": "Brescia 2",
    "address": "Piazza Luigi Buffoli 16, 25127 Brescia",
    "location": "Altele",
    "latitude": 45.55224058,
    "longitude": 10.19174862
  },
  {
    "number": 414,
    "country": "Italia",
    "city": "Bolzano",
    "address": "Via della Mendola 124, 39100 Bolzano",
    "location": "Altele",
    "latitude": 46.49515045,
    "longitude": 11.32316619
  },
  {
    "number": 415,
    "country": "Italia",
    "city": "Cles",
    "address": "Via Tiberio Claudio 22, 38023 Cles",
    "location": "Altele",
    "latitude": 46.364517,
    "longitude": 11.03152415
  },
  {
    "number": 416,
    "country": "Italia",
    "city": "Como",
    "address": "Via Collegio Dei Dottori 9, 22100 Como",
    "location": "Altele",
    "latitude": 45.81008843,
    "longitude": 9.082633154
  },
  {
    "number": 417,
    "country": "Italia",
    "city": "Crema",
    "address": "Via Giacomo Matteotti 47, 26013 Crema",
    "location": "Altele",
    "latitude": 45.36080151,
    "longitude": 9.688865772
  },
  {
    "number": 418,
    "country": "Italia",
    "city": "Cremona",
    "address": "Piazza Aldo Moro 16, 26100 Cremona",
    "location": "Altele",
    "latitude": 45.15481714,
    "longitude": 10.00295767
  },
  {
    "number": 419,
    "country": "Italia",
    "city": "Lodi",
    "address": "Via Paolo Gorini 21, 26900 Lodi",
    "location": "Altele",
    "latitude": 45.31150429,
    "longitude": 9.507439598
  },
  {
    "number": 420,
    "country": "Italia",
    "city": "Monza 1",
    "address": "Via D'Annunzio 35, 20900 Monza",
    "location": "Altele",
    "latitude": 45.56344044,
    "longitude": 9.264865957
  },